[{"index":0,"id":68,"name":"Memorial Juarez Barroso","location.latitude":"-4.2618162","location.longitude":"-38.9330716"},{"index":1,"id":6077,"name":"Parque Estadual Matas do Segredo","location.latitude":"-20.3994566","location.longitude":"-54.585565"},{"index":2,"id":6078,"name":"Museu da Escola Polit\u00e9cnica da Universidade Federal do Rio de Janeiro","location.latitude":"-22.904424","location.longitude":"-43.228568"},{"index":3,"id":6079,"name":"Museu Municipal Marechal Bormann","location.latitude":"-26.8775867","location.longitude":"-52.4025932"},{"index":4,"id":6080,"name":"Memorial Alem\u00e3o - Bosque Alem\u00e3o","location.latitude":"-25.406096","location.longitude":"-49.285545"},{"index":5,"id":6081,"name":"Museu Municipal de Caxias do Sul","location.latitude":"-29.1634","location.longitude":"-51.179675"},{"index":6,"id":6083,"name":"Museu Hist\u00f3rico Municipal de S\u00e3o Joaquim - Espa\u00e7o Assis Chateaubriand","location.latitude":"-28.290464","location.longitude":"-49.937584"},{"index":7,"id":6084,"name":"Museu Hist\u00f3rico e Arqueol\u00f3gico Chico Ribeiro e Casa da Cultura Tias Polveiras","location.latitude":"-18.589272","location.longitude":"-48.709766"},{"index":8,"id":6085,"name":"Memorial Padre Ant\u00f4nio Vieira SJ","location.latitude":"-3.5644941","location.longitude":"-41.0921618"},{"index":9,"id":6087,"name":"Museu Hist\u00f3rico Vale do Cahy","location.latitude":"-29.5896142","location.longitude":"-51.3764282"},{"index":10,"id":6088,"name":"Museu da Cidade de Bom Despacho","location.latitude":"-19.7343142","location.longitude":"-45.2518857"},{"index":11,"id":6089,"name":"Museu de Ci\u00eancias Naturais e de Hist\u00f3ria Barra do Jardim","location.latitude":"-7.576395","location.longitude":"-39.282979"},{"index":12,"id":6090,"name":"Museu Casa Hist\u00f3rica de Alc\u00e2ntara","location.latitude":"-2.4038968","location.longitude":"-44.4153646"},{"index":13,"id":6091,"name":"Museu de Arte Religiosa e Tradicional de Cabo Frio","location.latitude":"-22.8794188","location.longitude":"-42.021715"},{"index":14,"id":6092,"name":"Museu Regional de Caet\u00e9","location.latitude":"-19.896566","location.longitude":"-43.670983"},{"index":15,"id":6093,"name":"Museu das Bandeiras","location.latitude":"-15.9379740792275","location.longitude":"-50.1401424407959"},{"index":16,"id":6094,"name":"Museu do Diamante","location.latitude":"-17.941224","location.longitude":"-43.622041"},{"index":17,"id":6095,"name":"Museu Victor Meirelles","location.latitude":"-27.5979501","location.longitude":"-48.5489352"},{"index":18,"id":6096,"name":"Museu de Arqueologia de Itaipu","location.latitude":"-22.971325","location.longitude":"-43.04492"},{"index":19,"id":6097,"name":"Museu da Inconfid\u00eancia","location.latitude":"-20.385743","location.longitude":"-43.503686"},{"index":20,"id":6098,"name":"Museu de Arte Sacra da Boa Morte","location.latitude":"-15.9348997641507","location.longitude":"-50.1397347450256"},{"index":21,"id":6099,"name":"Museu Forte Defensor Perp\u00e9tuo de Paraty","location.latitude":"-23.2118668298307","location.longitude":"-44.7115968167782"},{"index":22,"id":6100,"name":"Museu de Arte Sacra de Paraty","location.latitude":"-23.2203181","location.longitude":"-44.7128905"},{"index":23,"id":6101,"name":"Museu Imperial","location.latitude":"-22.509004","location.longitude":"-43.175782"},{"index":24,"id":6102,"name":"Museu da Aboli\u00e7\u00e3o","location.latitude":"-8.0565207851303","location.longitude":"-34.9088162183762"},{"index":25,"id":6103,"name":"Museu Villa-Lobos","location.latitude":"-22.951854","location.longitude":"-43.190438"},{"index":26,"id":6104,"name":"Museus Raymundo Ottoni de Castro Maya - Museu do A\u00e7ude","location.latitude":"-22.964768","location.longitude":"-43.282046"},{"index":27,"id":6105,"name":"Museu Pal\u00e1cio Rio Negro","location.latitude":"-22.507216","location.longitude":"-43.180394"},{"index":28,"id":6106,"name":"Museu da Rep\u00fablica","location.latitude":"-22.926414","location.longitude":"-43.176508"},{"index":29,"id":6108,"name":"Museu do Ouro","location.latitude":"-19.8887607425113","location.longitude":"-43.8072752952576"},{"index":30,"id":6109,"name":"Museu Regional de S\u00e3o Jo\u00e3o Del Rei","location.latitude":"-21.136397","location.longitude":"-44.261774"},{"index":31,"id":6110,"name":"Museu das Miss\u00f5es","location.latitude":"-28.5516149","location.longitude":"-54.5594636"},{"index":32,"id":6111,"name":"Museu Lasar Segall","location.latitude":"-23.5947842413181","location.longitude":"-46.6353106498718"},{"index":33,"id":6112,"name":"Museu Regional Casa dos Ottoni","location.latitude":"-18.599576","location.longitude":"-43.374811"},{"index":34,"id":6113,"name":"Museu Casa da Hera","location.latitude":"-22.410913","location.longitude":"-43.665212"},{"index":35,"id":6114,"name":"Museu Solar Monjardim","location.latitude":"-20.3058291","location.longitude":"-40.3218515"},{"index":36,"id":6115,"name":"Museu Casa da Princesa","location.latitude":"-14.7663755861207","location.longitude":"-49.5787668228149"},{"index":37,"id":6116,"name":"Museu Ludovicus - Instituto C\u00e2mara Cascudo","location.latitude":"-5.7817494","location.longitude":"-35.2061959"},{"index":38,"id":6117,"name":"Museu Didacta","location.latitude":"-29.761909","location.longitude":"-57.08585"},{"index":39,"id":6118,"name":"Museu Mel\u00e2nia Mottoso","location.latitude":"-30.985002","location.longitude":"-54.673025"},{"index":40,"id":6119,"name":"Se\u00e7\u00e3o de Mem\u00f3ria Institucional","location.latitude":"-15.800982","location.longitude":"-47.861569"},{"index":41,"id":6120,"name":"Museu do Vinho M\u00e1rio de Pellegrin","location.latitude":"-27.008048","location.longitude":"-51.151407"},{"index":42,"id":6121,"name":"Observat\u00f3rio Astron\u00f4mico e Planet\u00e1rio do Col\u00e9gio Estadual do Paran\u00e1","location.latitude":"-25.423747","location.longitude":"-49.266055"},{"index":43,"id":6122,"name":"Museu e Casa da Cultura Doutor Paulo Portugal","location.latitude":"-21.018087","location.longitude":"-47.761038"},{"index":44,"id":6123,"name":"Casa da Mem\u00f3ria do Povo de Jaguaretama","location.latitude":"-5.60549","location.longitude":"-38.7642081"},{"index":45,"id":6124,"name":"Casa da Arte","location.latitude":"-9.66067","location.longitude":"-35.739955"},{"index":46,"id":6126,"name":"Museu Tr\u00eas Torres","location.latitude":"-29.331811","location.longitude":"-49.719489"},{"index":47,"id":6127,"name":"Museu Regional de Arte de Feira de Santana","location.latitude":"-12.258995","location.longitude":"-38.967836"},{"index":48,"id":6129,"name":"Museu do Instituto de Previd\u00eancia do Rio Grande do Sul","location.latitude":"-30.0437225","location.longitude":"-51.2290355"},{"index":49,"id":6130,"name":"Museu Hist\u00f3rico Municipal de S\u00e3o Louren\u00e7o do Sul","location.latitude":"-31.36735155","location.longitude":"-51.979627"},{"index":50,"id":6131,"name":"Casa da Cultura Professor Francisco Portugal Neves - Museu A Centen\u00e1ria Madalena","location.latitude":"-21.955154","location.longitude":"-42.010253"},{"index":51,"id":6132,"name":"Museu Tapuy Por\u00e3","location.latitude":"-23.9378543","location.longitude":"-54.2760255"},{"index":52,"id":6133,"name":"Casa da M\u00fasica da Bahia","location.latitude":"-12.972226","location.longitude":"-38.501426"},{"index":53,"id":6134,"name":"Memorial Minas Gerais - Vale","location.latitude":"-19.931224","location.longitude":"-43.938661"},{"index":54,"id":6135,"name":"Museu do Autom\u00f3vel de Carmo da Mata","location.latitude":"-20.5584753","location.longitude":"-44.8698308"},{"index":55,"id":6136,"name":"Museu Orty de Magalh\u00e3es Machado","location.latitude":"-26.173437","location.longitude":"-50.390976"},{"index":56,"id":6137,"name":"Museu dos Pioneiros","location.latitude":"-22.817852","location.longitude":"-50.793771"},{"index":57,"id":6138,"name":"Museu Hist\u00f3rico Benjamim Rodrigues","location.latitude":"-11.7303627","location.longitude":"-49.0671884"},{"index":58,"id":6139,"name":"Associa\u00e7\u00e3o Filtro dos Sonhos","location.latitude":"-14.8010628","location.longitude":"-39.0324347"},{"index":59,"id":6140,"name":"Museu Monge Jos\u00e9 Maria","location.latitude":"-27.02917","location.longitude":"-51.901714"},{"index":60,"id":6141,"name":"Museu de S\u00edtio Arqueol\u00f3gico Sambaqui da Tarioba","location.latitude":"-22.5283331","location.longitude":"-41.9403223"},{"index":61,"id":6142,"name":"Memorial Legislativo","location.latitude":"-12.972226","location.longitude":"-38.501426"},{"index":62,"id":6143,"name":"Centro Cultural Padre Schio","location.latitude":"-28.8577544814086","location.longitude":"-51.2837290763855"},{"index":63,"id":6144,"name":"Ecomuseu do Cip\u00f3","location.latitude":"-19.3351180602569","location.longitude":"-43.6531448364258"},{"index":64,"id":6145,"name":"Museu de Hist\u00f3ria Natural da Universidade Federal de Alfenas","location.latitude":"-21.4250028","location.longitude":"-45.9485633"},{"index":65,"id":6146,"name":"Escola da Ci\u00eancia  - Biologia\/Hist\u00f3ria","location.latitude":"-20.3166213","location.longitude":"-40.3581635"},{"index":66,"id":6148,"name":"Museu de Hist\u00f3ria Natural da Universidade Federal de Lavras","location.latitude":"-21.248485","location.longitude":"-45.001381"},{"index":67,"id":6149,"name":"Museu dos Esportes Man\u00e9 Garrincha","location.latitude":"-22.91522","location.longitude":"-43.228702"},{"index":68,"id":6150,"name":" Museu Major Milit\u00e3o Pereira de Almeida","location.latitude":"-18.4175749","location.longitude":"-49.2168403"},{"index":69,"id":6151,"name":"Funda\u00e7\u00e3o Jos\u00e9 e Paulina Nemirovsky","location.latitude":"-23.5355398","location.longitude":"-46.638866"},{"index":70,"id":6152,"name":"Museu Ferrovi\u00e1rio (Miranda)","location.latitude":"-20.241636","location.longitude":"-56.379946"},{"index":71,"id":6153,"name":"Memorial da Praia do Laranjal Arthur Augusto de Assump\u00e7\u00e3o","location.latitude":"-31.752558","location.longitude":"-52.2427936"},{"index":72,"id":6154,"name":"Museu de Folclore Edison Carneiro","location.latitude":"-22.925966","location.longitude":"-43.176519"},{"index":73,"id":6155,"name":"Museu Din\u00e2mico de Ci\u00eancia e Tecnologia da Universidade Federal de Juiz de Fora","location.latitude":"-21.7585375","location.longitude":"-43.3486583"},{"index":74,"id":6157,"name":"Casa de Cultura Alberton","location.latitude":"-27.2765033","location.longitude":"-52.3474205"},{"index":75,"id":6158,"name":"Museu de Hist\u00f3ria Natural Mozart de Oliveira Vallim","location.latitude":"-23.183387","location.longitude":"-50.650255"},{"index":76,"id":6161,"name":"Museu de S\u00e3o Benedito do Ros\u00e1rio","location.latitude":"-20.318749","location.longitude":"-40.334621"},{"index":77,"id":6162,"name":"Museu da Farm\u00e1cia da Santa Casa de Miseric\u00f3rdia","location.latitude":"-22.908393","location.longitude":"-43.171295"},{"index":78,"id":6163,"name":"Museu de Valores do Banco Central do Brasil","location.latitude":"-15.800871","location.longitude":"-47.882694"},{"index":79,"id":6164,"name":"Parque Estadual do Jaragu\u00e1","location.latitude":"-23.458279","location.longitude":"-46.755833"},{"index":80,"id":6165,"name":"Pavilh\u00e3o das Culturas Brasileiras","location.latitude":"-23.582747","location.longitude":"-46.657018"},{"index":81,"id":6166,"name":"Museu do \u00cdndio - Universidade Federal de Uberl\u00e2ndia","location.latitude":"-18.9183638","location.longitude":"-48.2645693"},{"index":82,"id":6167,"name":"Memorial Professor Juliano Moreira","location.latitude":"-12.956856","location.longitude":"-38.442335"},{"index":83,"id":6168,"name":"Museu Rondon","location.latitude":"-9.906102","location.longitude":"-63.033047"},{"index":84,"id":6169,"name":"Museu Municipal de Rodeio Bonito","location.latitude":"-27.474686","location.longitude":"-53.171105"},{"index":85,"id":6170,"name":"Casa da Cultura de Porto Real do Col\u00e9gio","location.latitude":"-10.185318","location.longitude":"-36.837891"},{"index":86,"id":6171,"name":"Museu do Horto","location.latitude":"-22.967141","location.longitude":"-43.237195"},{"index":87,"id":6172,"name":"Museu Grover Cleveland","location.latitude":"-26.413529","location.longitude":"-52.367296"},{"index":88,"id":6173,"name":"Parque Hist\u00f3rico Castro Alves","location.latitude":"-12.532136","location.longitude":"-39.190595"},{"index":89,"id":6175,"name":"Museu do Superior Tribunal de Justi\u00e7a","location.latitude":"-15.809003","location.longitude":"-47.866284"},{"index":90,"id":6176,"name":"Museu da Coloniza\u00e7\u00e3o","location.latitude":"-26.069028","location.longitude":"-53.0357256"},{"index":91,"id":6177,"name":"Museu da Fazenda Federal","location.latitude":"-22.908167","location.longitude":"-43.172869"},{"index":92,"id":6178,"name":"Museu Antropol\u00f3gico do Rio Grande do Sul","location.latitude":"-30.029787","location.longitude":"-51.2291"},{"index":93,"id":6179,"name":"Museu da Vida Marinha","location.latitude":"-23.446376","location.longitude":"-45.068331"},{"index":94,"id":6180,"name":"Casa-Museu de Graciliano Ramos","location.latitude":"-9.415943","location.longitude":"-36.627885"},{"index":95,"id":6182,"name":"Museu Casa de Maria Bonita","location.latitude":"-9.392052","location.longitude":"-38.227844"},{"index":96,"id":6183,"name":"Museu da Cacha\u00e7a - Paty do Alferes","location.latitude":"-22.41466","location.longitude":"-43.426746"},{"index":97,"id":6184,"name":"Reserva Ecol\u00f3gica da Juatinga","location.latitude":"-23.223605","location.longitude":"-44.723125"},{"index":98,"id":6185,"name":"Instituto Solar Sapiranga - Museu Amalg\u00e2mico Solar Sapiranga","location.latitude":"-3.803597","location.longitude":"-38.4576203"},{"index":99,"id":6186,"name":"Casa da Mem\u00f3ria de Ivatuba - Museu","location.latitude":"-23.6191973","location.longitude":"-52.2207636"},{"index":100,"id":6187,"name":"Parque Estadual Sete Passagens","location.latitude":"-11.430324","location.longitude":"-40.603459"},{"index":101,"id":6188,"name":"Museu do Chocolate","location.latitude":"-29.3803546","location.longitude":"-50.8738745"},{"index":102,"id":6189,"name":"Museu Municipal de  Silveira Martins - Museu do Imigrante","location.latitude":"-29.647228","location.longitude":"-53.591554"},{"index":103,"id":6190,"name":"Museu Anchieta de Ci\u00eancias Naturais","location.latitude":"-30.028514","location.longitude":"-51.177093"},{"index":104,"id":6191,"name":"Espa\u00e7o Pas\u00e1rgada","location.latitude":"-8.059689","location.longitude":"-34.881223"},{"index":105,"id":6192,"name":"Parque Estadual Suma\u00fama","location.latitude":"-3.032944","location.longitude":"-59.98032"},{"index":106,"id":6193,"name":"Museu da Cidade de S\u00e3o Paulo - S\u00edtio Morrinhos","location.latitude":"-23.506143","location.longitude":"-46.648508"},{"index":107,"id":6195,"name":"Museu Doutor Dirceu Cardoso, Muqui e Sua Hist\u00f3ria","location.latitude":"-20.953668","location.longitude":"-41.341216"},{"index":108,"id":6196,"name":"Cinemateca Paraense","location.latitude":"-1.453948","location.longitude":"-48.4972507"},{"index":109,"id":6197,"name":"Funda\u00e7\u00e3o Jardim Zool\u00f3gico de Bras\u00edlia","location.latitude":"-15.842704","location.longitude":"-47.9163858"},{"index":110,"id":6198,"name":"Museu Natural Entomol\u00f3gico Ornith Bollmann","location.latitude":"-26.2234632","location.longitude":"-49.410262"},{"index":111,"id":6199,"name":"Memorial Municipal de Muria\u00e9","location.latitude":"-21.1308312","location.longitude":"-42.3666631"},{"index":112,"id":6200,"name":"Museu \u00c9poca","location.latitude":"-25.099093","location.longitude":"-50.158218"},{"index":113,"id":6201,"name":"Museu de M\u00e1quinas Agr\u00edcolas do Fran\u00e7a","location.latitude":"-16.0271218","location.longitude":"-49.8014563"},{"index":114,"id":6203,"name":"Museu do Piau\u00ed - Casa de Odilon Nunes","location.latitude":"-5.092329","location.longitude":"-42.803751"},{"index":115,"id":6204,"name":"Museu do Mar","location.latitude":"-23.984488","location.longitude":"-46.297664"},{"index":116,"id":6205,"name":"Museu Espa\u00e7o do Boneco","location.latitude":"-21.7916651","location.longitude":"-48.1793475"},{"index":117,"id":6206,"name":"Museu Hist\u00f3rico de Nova Veneza","location.latitude":"-16.369966","location.longitude":"-49.317243"},{"index":118,"id":6207,"name":"Museu Corina Novelino","location.latitude":"-22.8144358","location.longitude":"-45.1913464"},{"index":119,"id":6208,"name":"Museu do Forr\u00f3 Luiz Gonzaga","location.latitude":"-8.28498","location.longitude":"-35.970198"},{"index":120,"id":6209,"name":"Pinacoteca da Universidade Federal da Para\u00edba","location.latitude":"-7.136472","location.longitude":"-34.845607"},{"index":121,"id":6210,"name":"Museu do Sert\u00e3o Antonio Coelho","location.latitude":"-9.61882","location.longitude":"-42.079306"},{"index":122,"id":6211,"name":"Museu Itinerante Balaio da Capoeira","location.latitude":"-19.9616348","location.longitude":"-43.960916"},{"index":123,"id":6213,"name":"Herb\u00e1rio Rioclarense - Universidade Estadual Paulista","location.latitude":"-22.402898","location.longitude":"-47.573567"},{"index":124,"id":6214,"name":"Museu Casa do Agente Ferrovi\u00e1rio Anselmo Cargnin","location.latitude":"-28.7137096","location.longitude":"-49.3091437"},{"index":125,"id":6215,"name":"Museu Casa da Moeda do Brasil","location.latitude":"-22.907561","location.longitude":"-43.186451"},{"index":126,"id":6216,"name":"Museu Cidade de Jaguaruna","location.latitude":"-28.6191895","location.longitude":"-49.0261026"},{"index":127,"id":6217,"name":"Solar dos Mellos - Museu da Cidade de Maca\u00e9","location.latitude":"-22.377304","location.longitude":"-41.785236"},{"index":128,"id":6219,"name":"Museu Mem\u00f3rias de R\u00e9gis","location.latitude":"-9.8962125","location.longitude":"-39.028593"},{"index":129,"id":6220,"name":"Museu do Instituto Arqueol\u00f3gico, Hist\u00f3rico e Geogr\u00e1fico Pernambucano","location.latitude":"-8.060981","location.longitude":"-34.884379"},{"index":130,"id":6221,"name":"Museu Hist\u00f3rico e Pedag\u00f3gico Ministro Jos\u00e9 de Moura Resende","location.latitude":"-23.103391","location.longitude":"-45.713707"},{"index":131,"id":6223,"name":"Museu Aeroespacial - MUSAL","location.latitude":"-22.8822023","location.longitude":"-43.3888487576593"},{"index":132,"id":6224,"name":"Museu e Relic\u00e1rio do Padre Rodolfo Kom\u00f3rek","location.latitude":"-23.203654","location.longitude":"-45.901822"},{"index":133,"id":6225,"name":"Centro Hist\u00f3rico e Cultural Museu Vicente de Paula Rios","location.latitude":"-2.921015","location.longitude":"-39.913816"},{"index":134,"id":6226,"name":"Museu do Vaqueiro - Casa Antonio Cabral","location.latitude":"-5.2496159","location.longitude":"-42.2091576"},{"index":135,"id":6227,"name":"Museu de Imagens do Inconsciente","location.latitude":"-22.900628","location.longitude":"-43.302146"},{"index":136,"id":6228,"name":"Parque Estadual de Campinhos","location.latitude":"-24.973572","location.longitude":"-49.088368"},{"index":137,"id":6229,"name":"Museu do Caf\u00e9 - Campinas","location.latitude":"-22.877097","location.longitude":"-47.061723"},{"index":138,"id":6230,"name":"Memorial de Exposi\u00e7\u00e3o Permanente do Centro de Artesanato de Janu\u00e1ria","location.latitude":"-15.4922549","location.longitude":"-44.3607207"},{"index":139,"id":6231,"name":"Museu da Cacha\u00e7a - Maranguape","location.latitude":"-3.942966","location.longitude":"-38.664536"},{"index":140,"id":6232,"name":"Museu do Expedicion\u00e1rio","location.latitude":"-25.4289541","location.longitude":"-49.267137"},{"index":141,"id":6233,"name":"Museu de Computa\u00e7\u00e3o do Instituto de Ci\u00eancias Matem\u00e1ticas e de Computa\u00e7\u00e3o - Universidade de S\u00e3o Paulo","location.latitude":"-22.003695","location.longitude":"-47.89615"},{"index":142,"id":6234,"name":"Parque Estadual Alberto L\u00f6fgren","location.latitude":"-23.459019","location.longitude":"-46.63349"},{"index":143,"id":6235,"name":"Museu Interativo de Ci\u00eancias do Sul Fluminense","location.latitude":"-22.5139493","location.longitude":"-44.1980984"},{"index":144,"id":6236,"name":"Museu Hist\u00f3rico e Art\u00edstico de Cl\u00e1udio","location.latitude":"-20.444151","location.longitude":"-44.76776"},{"index":145,"id":6237,"name":"Museu do Esporte","location.latitude":"-9.746814","location.longitude":"-36.667391"},{"index":146,"id":6239,"name":"Memorial Carlos Chagas","location.latitude":"-17.8895316","location.longitude":"-44.5815648"},{"index":147,"id":6240,"name":"Museu Armando de Arruda Pereira","location.latitude":"-23.540993","location.longitude":"-46.66061"},{"index":148,"id":6241,"name":"Planet\u00e1rio Professor Jos\u00e9 Baptista Pereira - Universidade Federal do Rio Grande do Sul","location.latitude":"-30.04372345","location.longitude":"-51.20799235"},{"index":149,"id":6242,"name":"Instituto Tomie Ohtake","location.latitude":"-23.5614712","location.longitude":"-46.6946911"},{"index":150,"id":6243,"name":"Museu Municipal Hist\u00f3rico Pedag\u00f3gico de Ourinhos","location.latitude":"-22.980876","location.longitude":"-49.856381"},{"index":151,"id":6244,"name":"Espa\u00e7o Energia","location.latitude":"-7.124458","location.longitude":"-34.865261"},{"index":152,"id":6245,"name":"Memorial Jo\u00e3o Paulo II","location.latitude":"-15.581856","location.longitude":"-56.056802"},{"index":153,"id":6246,"name":"Museu Hist\u00f3rico de Rio Novo","location.latitude":"-21.479468","location.longitude":"-43.125389"},{"index":154,"id":6247,"name":"Museu da Justi\u00e7a - Centro Cultural do Poder Judici\u00e1rio - CCMJ","location.latitude":"-22.904774376262","location.longitude":"-43.172487616539"},{"index":155,"id":6248,"name":"Museu Inim\u00e1 de Paula","location.latitude":"-19.926986","location.longitude":"-43.937978"},{"index":156,"id":6250,"name":"Acervo Hist\u00f3rico do Instituto Estadual de Educa\u00e7\u00e3o Olavo Bilac","location.latitude":"-29.690118","location.longitude":"-53.813859"},{"index":157,"id":6251,"name":"Casa da Cultura Orlando Cardoso Duarte","location.latitude":"-31.1047145","location.longitude":"-50.9146049"},{"index":158,"id":6252,"name":"Museu do Cear\u00e1","location.latitude":"-3.726594","location.longitude":"-38.526096"},{"index":159,"id":6253,"name":"Casa da Ci\u00eancia - Centro Cultural de Ci\u00eancia e Tecnologia da Universidade Federal do Rio de Janeiro","location.latitude":"-22.954307","location.longitude":"-43.17451"},{"index":160,"id":6254,"name":"Museu da Imigra\u00e7\u00e3o da Ilha das Flores - MIIF","location.latitude":"-22.8450433","location.longitude":"-43.0948954"},{"index":161,"id":6255,"name":"Memorial TCE \u2013 Tribunal de Contas do Estado do Rio Grande do Sul","location.latitude":"-30.032269","location.longitude":"-51.207052"},{"index":162,"id":6256,"name":"Museu Casa do Sert\u00e3o e Centro de Estudos Feirenses","location.latitude":"-12.2110227","location.longitude":"-38.9653259"},{"index":163,"id":6257,"name":"Museu de Arqueologia Ind\u00edgena Adauto Leite","location.latitude":"-20.9733112","location.longitude":"-46.1184521"},{"index":164,"id":6258,"name":"Museu do Cacau","location.latitude":"-12.967174","location.longitude":"-38.5102161"},{"index":165,"id":6259,"name":"Museu Centro Cultural Jo\u00e3o Fona","location.latitude":"-2.418708","location.longitude":"-54.70831"},{"index":166,"id":6260,"name":"Museu Carlos Gomes - CCLA","location.latitude":"-22.90397","location.longitude":"-47.061713"},{"index":167,"id":6261,"name":"Casar\u00e3o","location.latitude":"-20.5829342185562","location.longitude":"-41.1986446380615"},{"index":168,"id":6262,"name":"Museu do Homem Missioneiro Potiguar","location.latitude":"-5.911552","location.longitude":"-35.271323"},{"index":169,"id":6263,"name":"Museu da Hist\u00f3ria da Inquisi\u00e7\u00e3o","location.latitude":"-19.8697669","location.longitude":"-43.98293"},{"index":170,"id":6264,"name":"Pinacoteca da Universidade Federal de Vi\u00e7osa (SEMEC - UFV)","location.latitude":"-20.756402","location.longitude":"-42.874583"},{"index":171,"id":6265,"name":"Museu Municipal de Santo Cristo","location.latitude":"-27.826737","location.longitude":"-54.662498"},{"index":172,"id":6266,"name":"Memorial da Loucura - Hospital S\u00e3o Pedro","location.latitude":"-23.7790339","location.longitude":"-46.3016525"},{"index":173,"id":6267,"name":"Museu do Rio Tiet\u00ea","location.latitude":"-23.4948097","location.longitude":"-46.5257165"},{"index":174,"id":6268,"name":"Museu Al\u00edpio Vaz","location.latitude":"-21.3863936","location.longitude":"-42.6927679"},{"index":175,"id":6269,"name":"Museu Municipal de Guarani das Miss\u00f5es","location.latitude":"-28.149596","location.longitude":"-54.563473"},{"index":176,"id":6270,"name":"Museu da Miseric\u00f3rdia","location.latitude":"-12.974064","location.longitude":"-38.511871"},{"index":177,"id":6271,"name":"Museu de Minerais Doutor Odorico Rodrigues de Albuquerque","location.latitude":"-3.722245","location.longitude":"-38.528311"},{"index":178,"id":6272,"name":"Museu de Pedras Ramis Bucair","location.latitude":"-15.597223","location.longitude":"-56.094332"},{"index":179,"id":6273,"name":"Museu de Anatomia - Universidade Estadual Paulista -  Botucatu","location.latitude":"-22.897992","location.longitude":"-48.491386"},{"index":180,"id":6274,"name":"Museu Paulista da Universidade de S\u00e3o Paulo - Museu do Ipiranga","location.latitude":"-23.585377","location.longitude":"-46.609723"},{"index":181,"id":6275,"name":"Museu da Associa\u00e7\u00e3o Comercial Leovirgilia Santana","location.latitude":"-10.386049","location.longitude":"-38.340472"},{"index":182,"id":6277,"name":"Museu Casa da Mem\u00f3ria","location.latitude":"-27.0742862","location.longitude":"-52.9872598"},{"index":183,"id":6278,"name":"Museu Municipal Jos\u00e9 Maria Coelho","location.latitude":"-27.7767569","location.longitude":"-49.8956943"},{"index":184,"id":6279,"name":"Museu e Cripta de Epit\u00e1cio Pessoa","location.latitude":"-7.121604","location.longitude":"-34.883743"},{"index":185,"id":6280,"name":"Casa de Mem\u00f3ria e Cultura","location.latitude":"-27.357239","location.longitude":"-52.147174"},{"index":186,"id":6281,"name":"Casa de Cultura Palmarina","location.latitude":"-9.161732","location.longitude":"-36.033294"},{"index":187,"id":6282,"name":"Museu de Paleontologia Pl\u00e1cido Cidade Nuvens - Universidade Regional do Cariri","location.latitude":"-7.1861892","location.longitude":"-39.7364042"},{"index":188,"id":6283,"name":"Museu Hist\u00f3rico Municipal de Tel\u00eamaco Borba","location.latitude":"-24.333784","location.longitude":"-50.6253939"},{"index":189,"id":6284,"name":"Museu Municipal de Santa Rosa","location.latitude":"-27.571966","location.longitude":"-51.6659337"},{"index":190,"id":6285,"name":"Instituto Museu Giramundo","location.latitude":"-19.9118038","location.longitude":"-43.9367166"},{"index":191,"id":6286,"name":"Museu Correios","location.latitude":"-15.796334","location.longitude":"-47.888208"},{"index":192,"id":6287,"name":"Museu da Casa Colonial","location.latitude":"-16.443941","location.longitude":"-39.06462"},{"index":193,"id":6288,"name":"Museu Rural Leovegildo Dalmas","location.latitude":"-26.245561","location.longitude":"-51.076358"},{"index":194,"id":6289,"name":"Museu de Hist\u00f3ria Natural e Casa de Mem\u00f3ria Kadiw\u00e9u","location.latitude":"-21.125916","location.longitude":"-56.489917"},{"index":195,"id":6290,"name":"Museu de Biodiversidade do Cerrado - UFU - Universidade Federal de Uberl\u00e2ndia","location.latitude":"-18.8734784378626","location.longitude":"-48.2853841781616"},{"index":196,"id":6291,"name":"Museu do Brejo Paraibano (Museu da Rapadura)","location.latitude":"-6.964369","location.longitude":"-35.698058"},{"index":197,"id":6293,"name":"Museu do Com\u00e9rcio Piauiense","location.latitude":"-5.08405","location.longitude":"-42.809946"},{"index":198,"id":6294,"name":"Museu Frei Galv\u00e3o","location.latitude":"-22.817374","location.longitude":"-45.192956"},{"index":199,"id":6296,"name":"Galeria de Arte La Salle (Memorial La Salle)","location.latitude":"-22.8964675450329","location.longitude":"-43.1064462661743"},{"index":200,"id":6297,"name":"Memorial Abdias Pereira Dantas","location.latitude":"-6.9151019","location.longitude":"-38.3256323"},{"index":201,"id":6298,"name":"Museu da Terra e do Homem","location.latitude":"-7.153982","location.longitude":"-34.907968"},{"index":202,"id":6299,"name":"Casa da Mem\u00f3ria Madre Le\u00f4nia Milito","location.latitude":"-23.3362672","location.longitude":"-51.1687502"},{"index":203,"id":6300,"name":"Museu da Energia de S\u00e3o Paulo","location.latitude":"-23.5306981","location.longitude":"-46.6435239"},{"index":204,"id":6301,"name":"Museu Hist\u00f3rico do Crato","location.latitude":"-7.233835","location.longitude":"-39.412023"},{"index":205,"id":6302,"name":"Museu de Olho D'\u00c1gua do Casado","location.latitude":"-9.503995","location.longitude":"-37.830421"},{"index":206,"id":6303,"name":"Museu Hist\u00f3rico Municipal Estela Maris Reinher","location.latitude":"-27.780517","location.longitude":"-54.23624"},{"index":207,"id":6304,"name":"Museu Municipal Maria Carolina Alves Lellis","location.latitude":"-20.322194","location.longitude":"-48.310923"},{"index":208,"id":6305,"name":"Museu Hist\u00f3rico da Serra","location.latitude":"-20.128502","location.longitude":"-40.308135"},{"index":209,"id":6306,"name":"Museu Afro Cultural Oy\u00e1 N\u00ed","location.latitude":"-12.133966","location.longitude":"-38.421129"},{"index":210,"id":6307,"name":"Casa Rocha Pombo","location.latitude":"-25.479901","location.longitude":"-48.830278"},{"index":211,"id":6308,"name":"Parque Newton Freire Maia","location.latitude":"-25.443438","location.longitude":"-49.193152"},{"index":212,"id":6311,"name":"Museu Guido Straube","location.latitude":"-25.422817","location.longitude":"-49.266737"},{"index":213,"id":6312,"name":"Museu da Cidade de S\u00e3o Paulo - Capela do Morumbi","location.latitude":"-23.612489","location.longitude":"-46.713094"},{"index":214,"id":6313,"name":"Museu Municipal Araken Cruz","location.latitude":"-21.704589","location.longitude":"-46.821202"},{"index":215,"id":6315,"name":"Museu de Arte Sacra de Laranjeiras","location.latitude":"-10.798553","location.longitude":"-37.173467"},{"index":216,"id":6316,"name":"Museu Hist\u00f3rico de Monteiro","location.latitude":"-7.884036","location.longitude":"-37.11876"},{"index":217,"id":6317,"name":"Casar\u00e3o do Ch\u00e1","location.latitude":"-23.5641452","location.longitude":"-46.1386016"},{"index":218,"id":6318,"name":"Ecomuseu Rural (Instituto de Imagem e Cidadania)","location.latitude":"-22.9139476","location.longitude":"-43.2093973"},{"index":219,"id":6319,"name":"Museu de Cultura Popular e Ex-Votos Maria das Gra\u00e7as","location.latitude":"-8.876181","location.longitude":"-36.365655"},{"index":220,"id":6320,"name":"Planet\u00e1rio de Bras\u00edlia Luiz Cruls","location.latitude":"-15.7942287","location.longitude":"-47.8821658"},{"index":221,"id":6322,"name":"Memorial Aeroespacial Brasileiro","location.latitude":"-23.210125","location.longitude":"-45.857125"},{"index":222,"id":6324,"name":"Museu Internacional de Arte Na\u00eff do Brasil","location.latitude":"-22.940306","location.longitude":"-43.198692"},{"index":223,"id":6325,"name":"Museo Zio Minio","location.latitude":"-19.837087","location.longitude":"-40.37357"},{"index":224,"id":6326,"name":"Museu Theodor K\u00f6lle","location.latitude":"-22.4040589","location.longitude":"-47.5629882"},{"index":225,"id":6327,"name":"Museu Hist\u00f3rico Municipal  Monsenhor Agenor Neves Marques","location.latitude":"-28.525369","location.longitude":"-49.323949"},{"index":226,"id":6328,"name":"Museu Hist\u00f3rico de Santo In\u00e1cio","location.latitude":"-22.697292","location.longitude":"-51.7899647"},{"index":227,"id":6329,"name":"Museu Municipal de Frutal - MG","location.latitude":"-20.0234086","location.longitude":"-48.940653"},{"index":228,"id":6330,"name":"Museu da Universidade Federal do Rio Grande do Sul - UFRGS","location.latitude":"-30.0328293435162","location.longitude":"-51.2194962801004"},{"index":229,"id":6331,"name":"Museu Universit\u00e1rio Academia - UniAcademia - Museu de Etnologia Ind\u00edgena e Hist\u00f3ria Natural ","location.latitude":"-21.762107","location.longitude":"-43.352492"},{"index":230,"id":6332,"name":"Museu Professor Pereira de Godoy","location.latitude":"-21.999052","location.longitude":"-47.425543"},{"index":231,"id":6333,"name":"Museu do Sport Club Internacional \u2013 Ruy Tedesco","location.latitude":"-30.06544","location.longitude":"-51.235833"},{"index":232,"id":6334,"name":"Centro Regional de Arqueologia Ambiental Mario Neme","location.latitude":"-23.194073","location.longitude":"-49.385798"},{"index":233,"id":6335,"name":"Museu do Clube de Engenharia","location.latitude":"-22.9049076","location.longitude":"-43.1779641"},{"index":234,"id":6336,"name":"Museu Hist\u00f3rico do Vale do Itaja\u00ed-Mirim - Casa de Brusque","location.latitude":"-27.088729","location.longitude":"-48.912314"},{"index":235,"id":6337,"name":"Museu de Malacologia Professora Rosa de Lima Silva Melo - Universidade Federal Rural de Pernambuco","location.latitude":"-8.014936","location.longitude":"-34.947537"},{"index":236,"id":6338,"name":"Minimuseu Firmeza","location.latitude":"-3.724842","location.longitude":"-38.570913"},{"index":237,"id":6339,"name":"Museu das Naus","location.latitude":"-5.785027","location.longitude":"-35.205697"},{"index":238,"id":6340,"name":"Museu Municipal de Itaquaquecetuba","location.latitude":"-23.475149","location.longitude":"-46.351721"},{"index":239,"id":6341,"name":"Centro de Documenta\u00e7\u00e3o e Mem\u00f3ria de Alagoinhas","location.latitude":"-12.141373","location.longitude":"-38.432062"},{"index":240,"id":6342,"name":"Museu de Patos de Minas - Casa de Oleg\u00e1rio Maciel","location.latitude":"-18.5898365551957","location.longitude":"-46.5172076225281"},{"index":241,"id":6343,"name":"Casa da Cultura de Arapiraca","location.latitude":"-9.755291","location.longitude":"-36.661809"},{"index":242,"id":6344,"name":"Memorial Sport Club Corinthians Paulista","location.latitude":"-23.527936","location.longitude":"-46.566322"},{"index":243,"id":6345,"name":"Funda\u00e7\u00e3o Ernani Satyro","location.latitude":"-7.033801","location.longitude":"-37.273723"},{"index":244,"id":6346,"name":"Museu Municipal de Campos Novos","location.latitude":"-27.400674","location.longitude":"-51.228095"},{"index":245,"id":6348,"name":"Museu do Mel","location.latitude":"-22.293719","location.longitude":"-42.538106"},{"index":246,"id":6349,"name":"Museu Hist\u00f3rico Acelino Rodrigues de Oliveira","location.latitude":"-17.2058818","location.longitude":"-54.146888"},{"index":247,"id":6350,"name":"Memorial da Medianeira","location.latitude":"-29.700435","location.longitude":"-53.811799"},{"index":248,"id":6351,"name":"Museu Agar Nunes Guedes","location.latitude":"-7.2213638","location.longitude":"-37.2537072"},{"index":249,"id":6352,"name":"Museu de Drogas da Pol\u00edcia Civil do Distrito Federal","location.latitude":"-15.8847498041744","location.longitude":"-48.0575412511826"},{"index":250,"id":6353,"name":"Memorial de Sergipe - Bairro Treze de Julho","location.latitude":"-10.929768","location.longitude":"-37.045593"},{"index":251,"id":6354,"name":"Memorial do Imigrante Italiano - Casa Eug\u00eanio Mottin","location.latitude":"-25.292976","location.longitude":"-49.226641"},{"index":252,"id":6355,"name":"Instituto Jos\u00e9 Xavier","location.latitude":"-3.12825","location.longitude":"-40.837575"},{"index":253,"id":6356,"name":"Museu Hist\u00f3rico Padre Jos\u00e9 Gaertner","location.latitude":"-24.558361","location.longitude":"-54.056631"},{"index":254,"id":6358,"name":"Museu Aberto das Tartarugas Marinhas - Funda\u00e7\u00e3o Pr\u00f3-Tamar - Ubatuba\/SE","location.latitude":"-23.452201","location.longitude":"-45.070521"},{"index":255,"id":6359,"name":"Museu do Tropeiro","location.latitude":"-24.78957","location.longitude":"-50.011253"},{"index":256,"id":6360,"name":"Museu Hist\u00f3rico de Londrina Padre Carlos Weiss - Universidade Estadual de Londrina","location.latitude":"-23.308668","location.longitude":"-51.159298"},{"index":257,"id":6361,"name":"Museu da Imagem e do Som do Amazonas - MISAM","location.latitude":"-3.135444","location.longitude":"-60.021052"},{"index":258,"id":6364,"name":"Funda\u00e7\u00e3o Cl\u00f3vis Salgado","location.latitude":"-19.928107","location.longitude":"-43.932862"},{"index":259,"id":6365,"name":"Museu de Arqueologia e Etnologia da Universidade Federal da Bahia","location.latitude":"-12.972771","location.longitude":"-38.510216"},{"index":260,"id":6366,"name":"Museu de Armas da Pol\u00edcia Civil do Distrito Federal","location.latitude":"-15.7942287","location.longitude":"-47.8821658"},{"index":261,"id":6367,"name":"Parque Estadual de Vila Rica do Esp\u00edrito Santo","location.latitude":"-23.914021","location.longitude":"-51.98102"},{"index":262,"id":6368,"name":"Casa Martim Afonso","location.latitude":"-23.969977","location.longitude":"-46.387006"},{"index":263,"id":6369,"name":"Espa\u00e7o Energia - Museu Copel","location.latitude":"-25.434827","location.longitude":"-49.283171"},{"index":264,"id":6370,"name":"Museu do Instituto Adolfo Lutz","location.latitude":"-23.554856","location.longitude":"-46.669268"},{"index":265,"id":6371,"name":"Museu da Pessoa (virtual - misto)","location.latitude":"-23.5561496","location.longitude":"-46.6974838"},{"index":266,"id":6372,"name":"Museu Vivo do Garimpo","location.latitude":"-13.005742","location.longitude":"-41.370654"},{"index":267,"id":6373,"name":"Museu Hist\u00f3rico Memorial da Prata","location.latitude":"-7.6937137","location.longitude":"-37.0831456"},{"index":268,"id":6374,"name":"Centro de Mem\u00f3ria do Carnaval","location.latitude":"-22.897724","location.longitude":"-43.180598"},{"index":269,"id":6375,"name":"Memorial Frei Dami\u00e3o","location.latitude":"-6.8512706","location.longitude":"-35.4922422"},{"index":270,"id":6376,"name":"Museu Jos\u00e9 Vieira","location.latitude":"-23.377655","location.longitude":"-52.944078"},{"index":271,"id":6377,"name":"Museu Ambi\u00eancia Casa de Pedra","location.latitude":"-29.1634","location.longitude":"-51.179675"},{"index":272,"id":6378,"name":"Museu Hist\u00f3rico de Maric\u00e1","location.latitude":"-22.919681","location.longitude":"-42.819477"},{"index":273,"id":6379,"name":"Memorial Kimura","location.latitude":"-23.421018","location.longitude":"-51.933793"},{"index":274,"id":6380,"name":"Ecomuseu Municipal de Cachoeira das Emas","location.latitude":"-21.928408","location.longitude":"-47.367605"},{"index":275,"id":6381,"name":"Museu Hist\u00f3rico de Chopinzinho","location.latitude":"-25.852026","location.longitude":"-52.517803"},{"index":276,"id":6382,"name":"Museu de S\u00e3o Bento","location.latitude":"-12.979261","location.longitude":"-38.514325"},{"index":277,"id":6383,"name":"Museu e Arquivo Hist\u00f3rico Jornalista Jos\u00e9 Jorge J\u00fanior","location.latitude":"-22.4268404","location.longitude":"-50.5778087"},{"index":278,"id":6384,"name":"Museu Zezito Guedes","location.latitude":"-9.754178","location.longitude":"-36.659747"},{"index":279,"id":6385,"name":"Museu Org\u00e2nico - Museu do Ciclo do Couro Memorial Espedito Seleiro","location.latitude":"-7.0887616","location.longitude":"-39.6835766"},{"index":280,"id":6386,"name":"Museu da Catedral - Manaus","location.latitude":"-3.135267","location.longitude":"-60.025392"},{"index":281,"id":6387,"name":"Parque Estadual de S\u00e3o Camilo","location.latitude":"-24.287254","location.longitude":"-53.840935"},{"index":282,"id":6388,"name":"Centro de Mem\u00f3ria do Tribunal Regional Eleitoral de Mato Grosso do Sul","location.latitude":"-20.441427","location.longitude":"-54.563187"},{"index":283,"id":6389,"name":"Memorial Natal","location.latitude":"-5.851157","location.longitude":"-35.227715"},{"index":284,"id":6390,"name":"Memorial Affonso Penna","location.latitude":"-19.9611462","location.longitude":"-43.4171824"},{"index":285,"id":6391,"name":"Museu do \u00cdndio (Lagoa Seca)","location.latitude":"-7.1549934","location.longitude":"-35.8537249"},{"index":286,"id":6392,"name":"Casa de Mem\u00f3rias e Lembran\u00e7as de Chico Xavier","location.latitude":"-19.77318","location.longitude":"-47.951059"},{"index":287,"id":6393,"name":"Museu do Cotidiano de Brotas","location.latitude":"-22.28663","location.longitude":"-48.127474"},{"index":288,"id":6394,"name":"Parque Hist\u00f3rico do Mate - Museu do Mate","location.latitude":"-25.453023","location.longitude":"-49.52951"},{"index":289,"id":6395,"name":"Museu Hist\u00f3rico, Art\u00edstico e Folcl\u00f3rico Ruy Menezes","location.latitude":"-20.557147","location.longitude":"-48.563911"},{"index":290,"id":6396,"name":"Museu Ma\u00e7\u00f4nico Rocco Felippe","location.latitude":"-31.7645393","location.longitude":"-52.3404508"},{"index":291,"id":6397,"name":"Museu do Lixo que n\u00e3o \u00e9 lixo","location.latitude":"-25.369173","location.longitude":"-49.450575"},{"index":292,"id":6398,"name":"Centro Cultural de Hidrol\u00e2ndia","location.latitude":"-16.963038","location.longitude":"-49.22699"},{"index":293,"id":6399,"name":"Museu Paulo Machado de Carvalho - Museu do Futebol","location.latitude":"-23.522296","location.longitude":"-46.667395"},{"index":294,"id":6400,"name":"Casa da Mem\u00f3ria de Goioer\u00ea","location.latitude":"-24.194273","location.longitude":"-53.025884"},{"index":295,"id":6401,"name":"Museu do \u00cdndio - Centro de Informa\u00e7\u00e3o da Cultura Ind\u00edgena","location.latitude":"-23.649462","location.longitude":"-46.85239"},{"index":296,"id":6402,"name":"Centro Ferrovi\u00e1rio de Cultura","location.latitude":"-21.767578","location.longitude":"-42.537914"},{"index":297,"id":6403,"name":"Associa\u00e7\u00e3o Museu das Conchas de Mangaratiba","location.latitude":"-22.9613265","location.longitude":"-44.0412944"},{"index":298,"id":6404,"name":"Centro Municipal de Cultura Professora Jandira Telles Leme Bragana","location.latitude":"-22.4613436078146","location.longitude":"-43.5191690933425"},{"index":299,"id":6405,"name":"Museu Padre Joseph Cornelius Marie De Man","location.latitude":"-19.518359","location.longitude":"-42.627992"},{"index":300,"id":6406,"name":"Museu de Artes e Tradi\u00e7\u00e3o do Nordeste","location.latitude":"-15.77988","location.longitude":"-47.874009"},{"index":301,"id":6407,"name":"Museu WEG de Ci\u00eancia e Tecnologia","location.latitude":"-26.4812685","location.longitude":"-49.0826372"},{"index":302,"id":6408,"name":"Museu Entomol\u00f3gico Hip\u00f3lito Schneider  - Funda\u00e7\u00e3o Faculdade Estadual de Filosofia, Ci\u00eancias e Letras - Universidade Estadual do Centro Oeste","location.latitude":"-25.401477","location.longitude":"-51.485904"},{"index":303,"id":6409,"name":"Museu do Instituto Menino Deus","location.latitude":"-28.272748","location.longitude":"-52.423263"},{"index":304,"id":6410,"name":"Centro Regional de Cultura Rio Pardo - Memorial do Ex\u00e9rcito","location.latitude":"-29.988523","location.longitude":"-52.371658"},{"index":305,"id":6411,"name":"Museu da Loja Ma\u00e7\u00f4nica Fraternidade Castrense","location.latitude":"-24.790993","location.longitude":"-50.011105"},{"index":306,"id":6412,"name":"Museu Nacional do Mar - Embarca\u00e7\u00f5es Brasileiras","location.latitude":"-26.240522","location.longitude":"-48.638892"},{"index":307,"id":6413,"name":"Casa de Cultura Rui Carneiro","location.latitude":"-16.2519645372531","location.longitude":"-47.9479891061783"},{"index":308,"id":6415,"name":"Casa de Pedra","location.latitude":"-20.12152","location.longitude":"-40.307796"},{"index":309,"id":6416,"name":"Museu Aberto das Tartarugas Marinhas - Funda\u00e7\u00e3o Pr\u00f3-Tamar - Aracaju\/SE","location.latitude":"-10.9789794349615","location.longitude":"-37.0410221815109"},{"index":310,"id":6417,"name":"Museu Mineiro","location.latitude":"-19.9280665","location.longitude":"-43.9371147"},{"index":311,"id":6418,"name":"Museu Hist\u00f3rico de Cotipor\u00e3","location.latitude":"-28.989599","location.longitude":"-51.697585"},{"index":312,"id":6419,"name":"Museu Arqueol\u00f3gico Nossa Senhora dos Navegantes","location.latitude":"-28.827828","location.longitude":"-49.223016"},{"index":313,"id":6420,"name":"Centro de Mem\u00f3ria da Ci\u00eancia e da Tecnologia em Sergipe - CMCTS","location.latitude":"-10.925478","location.longitude":"-37.04792"},{"index":314,"id":6421,"name":"Museu Casa Coronel Joaquim Lacerda","location.latitude":"-25.768617","location.longitude":"-49.716134"},{"index":315,"id":6422,"name":"Museu Municipal de Osasco Dimitri Sensaud de Lavaud","location.latitude":"-23.529997","location.longitude":"-46.787452"},{"index":316,"id":6423,"name":"Museu Municipal Aracy Paraguass\u00fa","location.latitude":"-4.267067","location.longitude":"-55.993123"},{"index":317,"id":6424,"name":"Museu do Santu\u00e1rio Nossa Senhora de Guadalupe - Mitra Arquidiocesana de Pelotas","location.latitude":"-31.6179274020841","location.longitude":"-52.5075345486403"},{"index":318,"id":6425,"name":"Centro de Mem\u00f3ria Arquivo e Cultura do Tribunal Regional do Trabalho da 15\u00aa Regi\u00e3o","location.latitude":"-22.9053136","location.longitude":"-47.057789"},{"index":319,"id":6427,"name":"Museu e Arquivo Ant\u00f4nio Perdig\u00e3o","location.latitude":"-20.663928","location.longitude":"-43.785029"},{"index":320,"id":6428,"name":"AMARP - Acervo Municipal de Artes Pl\u00e1sticas de Caxias do Sul","location.latitude":"-29.1763522","location.longitude":"-51.1806299"},{"index":321,"id":6429,"name":"Museu Hist\u00f3rico da Imigra\u00e7\u00e3o Japonesa no Brasil","location.latitude":"-23.561221","location.longitude":"-46.635153"},{"index":322,"id":6430,"name":"Memorial Nereu Ramos","location.latitude":"-27.81546","location.longitude":"-50.326363"},{"index":323,"id":6431,"name":"Biblioteca da Floresta ","location.latitude":"-9.986111","location.longitude":"-67.803886"},{"index":324,"id":6433,"name":"Museu da Agricultura de Quiririm","location.latitude":"-23.010904","location.longitude":"-45.559703"},{"index":325,"id":6434,"name":"Museu Abadia S\u00e3o Geraldo","location.latitude":"-23.603476","location.longitude":"-46.728292"},{"index":326,"id":6435,"name":"Departamento de Mem\u00f3ria do Teatro Gua\u00edra","location.latitude":"-25.428602","location.longitude":"-49.264811"},{"index":327,"id":6436,"name":"Museu de Zoologia Newton Bai\u00e3o de Azevedo","location.latitude":"-20.7314751","location.longitude":"-42.0299263"},{"index":328,"id":6437,"name":"Museu Ferrovi\u00e1rio Domingos Lage - Cachoeiro de Itapemirim","location.latitude":"-20.848750689023","location.longitude":"-41.117507815361"},{"index":329,"id":6439,"name":"Museu de Arqueologia e Etnologia do Amap\u00e1","location.latitude":"0.034589","location.longitude":"-51.069844"},{"index":330,"id":6440,"name":"Centro Cultural do Tribunal de Justi\u00e7a do Estado do Acre","location.latitude":"-9.948186","location.longitude":"-67.799764"},{"index":331,"id":6441,"name":"Museu Municipal Adolfo Eurich","location.latitude":"-25.0403575","location.longitude":"-51.5357905"},{"index":332,"id":6442,"name":"Museu do Tropeiro - Seccional Casa de Sinhara","location.latitude":"-24.78957","location.longitude":"-50.011253"},{"index":333,"id":6443,"name":"Casa de C\u00e2mara e Cadeia","location.latitude":"-3.6221529","location.longitude":"-39.5074254"},{"index":334,"id":6444,"name":"Engenho Massangana","location.latitude":"-8.357395","location.longitude":"-35.022923"},{"index":335,"id":6445,"name":"Museu Hist\u00f3rico e Pedag\u00f3gico Marechal C\u00e2ndido Rondon","location.latitude":"-21.203845","location.longitude":"-50.438195"},{"index":336,"id":6446,"name":"Museus Raymundo Ottoni de Castro Maya - Ch\u00e1cara do C\u00e9u","location.latitude":"-22.917461","location.longitude":"-43.182232"},{"index":337,"id":6447,"name":"Memorial da Universidade Federal Rural de Pernambuco","location.latitude":"-8.014239","location.longitude":"-34.950787"},{"index":338,"id":6448,"name":"Centro de Refer\u00eancia Paulo Freire","location.latitude":"-23.540592","location.longitude":"-46.7025733"},{"index":339,"id":6449,"name":"Parque Estadual de Amapor\u00e3","location.latitude":"-23.094741","location.longitude":"-52.787098"},{"index":340,"id":6450,"name":"Museu Municipal de Dom Feliciano","location.latitude":"-30.6639034374516","location.longitude":"-52.130126953125"},{"index":341,"id":6451,"name":"S\u00edtio Piranhenga","location.latitude":"-2.559322","location.longitude":"-44.282772"},{"index":342,"id":6452,"name":"Museu Hist\u00f3rico Sorocabano - MHS","location.latitude":"-23.5050153","location.longitude":"-47.4414069"},{"index":343,"id":6453,"name":"Museu da Companhia Paulista","location.latitude":"-23.180916","location.longitude":"-46.88427"},{"index":344,"id":6454,"name":"Museu Municipal Hist\u00f3rico e Arqueol\u00f3gico","location.latitude":"-24.3191308","location.longitude":"-47.0076681"},{"index":345,"id":6456,"name":"Museu Dr. Am\u00e9rico Werneck","location.latitude":"-21.9678712","location.longitude":"-45.3484727"},{"index":346,"id":6457,"name":"Casa da Mem\u00f3ria de Vila Velha","location.latitude":"-20.342194","location.longitude":"-40.287846"},{"index":347,"id":6459,"name":"Memorial Severino Cabral","location.latitude":"-7.2185428","location.longitude":"-35.8881591"},{"index":348,"id":6460,"name":"Museu Agr\u00edcola Fraiburgo","location.latitude":"-27.2878379","location.longitude":"-50.5787368"},{"index":349,"id":6462,"name":"Memorial Arnon de Mello","location.latitude":"-9.661312","location.longitude":"-35.73107"},{"index":350,"id":6463,"name":"Memorial Ivone de Menezes Vieira\/Biblioteca Municipal","location.latitude":"-10.923763","location.longitude":"-37.071427"},{"index":351,"id":6464,"name":"Museu de Cultura Popular - Universidade Federal de Juiz de Fora","location.latitude":"-21.76346","location.longitude":"-43.350738"},{"index":352,"id":6465,"name":"Museu de Arte Sacra da Irmandade do Sant\u00edssimo Sacramento","location.latitude":"-22.906015","location.longitude":"-47.060575"},{"index":353,"id":6466,"name":"Museu Campos Gerais","location.latitude":"-25.096442","location.longitude":"-50.158681"},{"index":354,"id":6467,"name":"Museu de Arte Sacra do Carmo\/Par\u00f3quia do Pilar","location.latitude":"-20.386843","location.longitude":"-43.507407"},{"index":355,"id":6468,"name":"Museu do Porto (Manaus)","location.latitude":"-3.119025","location.longitude":"-60.021737"},{"index":356,"id":6469,"name":"Tipografia Oficina: Museu","location.latitude":"-19.916266","location.longitude":"-43.9353846"},{"index":357,"id":6470,"name":"Museu Antoniano","location.latitude":"-19.9598968048676","location.longitude":"-43.4177112579346"},{"index":358,"id":6471,"name":"Memorial Desembargador H\u00e9lio Cabral do Minist\u00e9rio P\u00fablico de Alagoas","location.latitude":"-9.662518","location.longitude":"-35.728189"},{"index":359,"id":6472,"name":"Museu Municipal de Jacupiranga","location.latitude":"-24.749175","location.longitude":"-48.060508"},{"index":360,"id":6473,"name":"Centro da Mem\u00f3ria da Igreja de Juiz de Fora","location.latitude":"-21.782579","location.longitude":"-43.344369"},{"index":361,"id":6474,"name":"Museu Municipal \u00c2ngelo Guglielmo","location.latitude":"-23.475812","location.longitude":"-46.351814"},{"index":362,"id":6475,"name":"Museu de Arte Dica Fraz\u00e3o","location.latitude":"-2.418109","location.longitude":"-54.712523"},{"index":363,"id":6476,"name":"Museu Hist\u00f3rico de Ip\u00ea","location.latitude":"-28.8195017","location.longitude":"-51.280386"},{"index":364,"id":6477,"name":"Memorial \u00c1rabe - SME Ger\u00eancia de Far\u00f3is do Saber e Bibliotecas logo escola    Farol do Saber Gibran Khalil Gibran","location.latitude":"-25.427265","location.longitude":"-49.264102"},{"index":365,"id":6478,"name":"Museu do Farol","location.latitude":"-3.713761","location.longitude":"-38.473396"},{"index":366,"id":6479,"name":"Museu Hist\u00f3rico Paulo Set\u00fabal","location.latitude":"-23.356164","location.longitude":"-47.856448"},{"index":367,"id":6480,"name":"Museu Municipal de S\u00e3o Jo\u00e3o do Pol\u00easine","location.latitude":"-29.611435","location.longitude":"-53.443213"},{"index":368,"id":6482,"name":"Museu da Corrup\u00e7\u00e3o - Virtual","location.latitude":"-23.5505199","location.longitude":"-46.6333094"},{"index":369,"id":6483,"name":"Museu de Hist\u00f3ria Natural de Alta Floresta","location.latitude":"-9.874757","location.longitude":"-56.085974"},{"index":370,"id":6484,"name":"Acervo do Dulcina de Moraes - Funda\u00e7\u00e3o Brasileira de Teatro","location.latitude":"-15.795787","location.longitude":"-47.885856"},{"index":371,"id":6486,"name":"Ecomuseu Ilha Grande","location.latitude":"-22.981454","location.longitude":"-44.293346"},{"index":372,"id":6487,"name":"Museu de Hist\u00f3ria Natural Professor Ant\u00f4nio Pergola","location.latitude":"-23.115524","location.longitude":"-46.536905"},{"index":373,"id":6488,"name":"Museu Hist\u00f3rico de Senador Pompeu","location.latitude":"-5.582835","location.longitude":"-39.370728"},{"index":374,"id":6489,"name":"Museu Pastor Paulo Evers","location.latitude":"-29.340442","location.longitude":"-51.025921"},{"index":375,"id":6490,"name":"Casa da Cultura e Museu","location.latitude":"-21.840471","location.longitude":"-44.80711"},{"index":376,"id":6491,"name":"Centro Cultural do Movimento Escoteiro","location.latitude":"-22.899595","location.longitude":"-43.17691"},{"index":377,"id":6493,"name":"Museu de Cera de Petr\u00f3polis","location.latitude":"-22.419201","location.longitude":"-43.1299669"},{"index":378,"id":6494,"name":"Museu e Espa\u00e7o Cultural do Vinho","location.latitude":"-23.150693","location.longitude":"-46.827146"},{"index":379,"id":6496,"name":"Museu Cultural do Sertanejo Chico Bento","location.latitude":"-6.3188107","location.longitude":"-38.2857265"},{"index":380,"id":6497,"name":"Museu do Negro de Campinas","location.latitude":"-22.85607","location.longitude":"-47.068636"},{"index":381,"id":6499,"name":"Museu da L\u00e2mpada","location.latitude":"-23.6376941","location.longitude":"-46.6582244"},{"index":382,"id":6501,"name":"Parque Estadual Serra da Baitaca","location.latitude":"-25.3893044","location.longitude":"-49.0455233"},{"index":383,"id":6502,"name":"Museu da Estrada de Ferro Sorocabana  - MEFS","location.latitude":"-23.497378","location.longitude":"-47.456663"},{"index":384,"id":6503,"name":"Aqu\u00e1rio Municipal de Cuiab\u00e1","location.latitude":"-15.603757","location.longitude":"-56.136882"},{"index":385,"id":6504,"name":"Museu Judaico de S\u00e3o Paulo - Templo Beth-El","location.latitude":"-23.5508137","location.longitude":"-46.6456471"},{"index":386,"id":6506,"name":"Museu da Vida","location.latitude":"-22.876019","location.longitude":"-43.242813"},{"index":387,"id":6507,"name":"Observat\u00f3rio Sismol\u00f3gico - Mostra de Sismologia","location.latitude":"-15.765164","location.longitude":"-47.869916"},{"index":388,"id":6508,"name":"Parque Hist\u00f3rico Municipal Danziger Hof","location.latitude":"-23.277049","location.longitude":"-51.280322"},{"index":389,"id":6509,"name":"Museu Municipal Ferreira Guimar\u00e3es","location.latitude":"-21.033358","location.longitude":"-44.754175"},{"index":390,"id":6510,"name":"Parque Estadual da Serra da Cantareira - N\u00facleo Engordador","location.latitude":"-23.2971156","location.longitude":"-46.7610744"},{"index":391,"id":6511,"name":"Casar\u00e3o Cultural Coronel Felinto da Cruz Neves","location.latitude":"-6.7732757","location.longitude":"-39.9819001"},{"index":392,"id":6512,"name":"Museu dos Esportes Lauthenay Perdig\u00e3o","location.latitude":"-9.67214","location.longitude":"-35.760202"},{"index":393,"id":6513,"name":"Museu Vivo Casa Cultural do Povo Kokama","location.latitude":"-4.230608","location.longitude":"-69.942254"},{"index":394,"id":6514,"name":"Museu Tiradentes da Pol\u00edcia Militar do Amazonas","location.latitude":"-3.13538835","location.longitude":"-60.0214275181017"},{"index":395,"id":6515,"name":"Museu de Arte Sacra - MAS","location.latitude":"-1.455015","location.longitude":"-48.504815"},{"index":396,"id":6516,"name":"Museu Comunit\u00e1rio de Percurso","location.latitude":"-29.446918","location.longitude":"-51.13724"},{"index":397,"id":6517,"name":"Museu da Ind\u00fastria do Cear\u00e1\/FIEC\/SESI Cear\u00e1","location.latitude":"-3.7227776","location.longitude":"-38.5270576"},{"index":398,"id":6520,"name":"Museu Lucas Carneiro Soares Cardoso","location.latitude":"-8.247062","location.longitude":"-35.773351"},{"index":399,"id":6521,"name":"Museu do Homem do Nordeste","location.latitude":"-8.030764","location.longitude":"-34.924662"},{"index":400,"id":6522,"name":"Museu Municipal Hist\u00f3rico e Cultural Maria Torres Gon\u00e7alves","location.latitude":"-16.355757","location.longitude":"-46.908382"},{"index":401,"id":6523,"name":"Parque Estadual do Graja\u00fa","location.latitude":"-22.922726","location.longitude":"-43.267725"},{"index":402,"id":6524,"name":"Memorial Carlos Drummond de Andrade","location.latitude":"-19.6160862910119","location.longitude":"-43.221235089004"},{"index":403,"id":6525,"name":"Casa da Mem\u00f3ria Jos\u00e9 Evangelista de Vasconcelos","location.latitude":"-3.7300232","location.longitude":"-40.9926511"},{"index":404,"id":6526,"name":"Funda\u00e7\u00e3o Maria Luisa e Oscar Americano","location.latitude":"-23.601539","location.longitude":"-46.70998"},{"index":405,"id":6527,"name":"Museu Nacional S\u00e3o Jos\u00e9 de Anchieta","location.latitude":"-20.8006985","location.longitude":"-40.6445003"},{"index":406,"id":6528,"name":"Museu Municipal de S\u00e3o Gabriel do Oeste","location.latitude":"-19.3986733","location.longitude":"-54.5726388"},{"index":407,"id":6529,"name":"Casa Culpi - Memorial da Imigra\u00e7\u00e3o Italiana","location.latitude":"-25.408893","location.longitude":"-49.321537"},{"index":408,"id":6530,"name":"Museu da Esta\u00e7\u00e3o F\u00e9rrea Urbana","location.latitude":"-29.889778","location.longitude":"-50.269177"},{"index":409,"id":6531,"name":"Museu de Ci\u00eancias Naturais da Esta\u00e7\u00e3o Ambiental Braskem","location.latitude":"-29.864465259258","location.longitude":"-51.3730305433273"},{"index":410,"id":6534,"name":"Espa\u00e7o da Consci\u00eancia Ambiental","location.latitude":"-20.4697105","location.longitude":"-54.6201211"},{"index":411,"id":6535,"name":"Museu Hist\u00f3rico Simonense Alaur da Matta","location.latitude":"-21.478246","location.longitude":"-47.552797"},{"index":412,"id":6536,"name":"Museu Hist\u00f3rico Beato Jos\u00e9 de Anchieta","location.latitude":"-22.74171","location.longitude":"-46.910543"},{"index":413,"id":6537,"name":"Museu de Arte Sacra de Iguape","location.latitude":"-24.71079","location.longitude":"-47.55769"},{"index":414,"id":6539,"name":"Museu Casa do Bentoca \/ Funda\u00e7\u00e3o Maria Jos\u00e9 Motta de Oliveira","location.latitude":"-19.5506608","location.longitude":"-42.1215027"},{"index":415,"id":6540,"name":"Museu da Faculdade de Direito - Universidade de S\u00e3o Paulo","location.latitude":"-23.549432","location.longitude":"-46.637073"},{"index":416,"id":6541,"name":"Memorial do Munic\u00edpio de Miguel Pereira","location.latitude":"-22.457735","location.longitude":"-43.480698"},{"index":417,"id":6542,"name":"Museu Ferrovi\u00e1rio de Juiz de Fora","location.latitude":"-21.759664","location.longitude":"-43.342871"},{"index":418,"id":6544,"name":"Espa\u00e7o Cultural Casa das Onze Janelas - Museu de Arte Contempor\u00e2nea","location.latitude":"-1.454953","location.longitude":"-48.504932"},{"index":419,"id":6545,"name":"Museu das Redu\u00e7\u00f5es","location.latitude":"-20.308541","location.longitude":"-43.718184"},{"index":420,"id":6546,"name":"Memorial Santaclarense","location.latitude":"-29.475233","location.longitude":"-52.084783"},{"index":421,"id":6547,"name":"Museu Hist\u00f3rico Municipal Pedro Lorenzoni","location.latitude":"-27.045216","location.longitude":"-51.2252963"},{"index":422,"id":6548,"name":"Museu do Autom\u00f3vel de S\u00e3o Paulo","location.latitude":"-23.6386004","location.longitude":"-46.5536161"},{"index":423,"id":6549,"name":"Museu Municipal de Marau","location.latitude":"-28.449129","location.longitude":"-52.205956"},{"index":424,"id":6550,"name":"Museu do Pescador - Complexo Ambiental CYRO GEVAERD","location.latitude":"-27.0161395","location.longitude":"-48.6142349"},{"index":425,"id":6551,"name":"C\u00edrculo de Estudos Bandeirantes","location.latitude":"-25.4283051","location.longitude":"-49.2640717"},{"index":426,"id":6552,"name":"Museu Obo\u00e9 de Arte Cearense","location.latitude":"-3.735391","location.longitude":"-38.497354"},{"index":427,"id":6553,"name":"Museu do Rio Uruguai","location.latitude":"-29.750367","location.longitude":"-57.083343"},{"index":428,"id":6554,"name":"Museu da Pol\u00edcia Civil do Estado do Rio de Janeiro","location.latitude":"-22.910334","location.longitude":"-43.18413"},{"index":429,"id":6555,"name":"Acervo Art\u00edstico-Cultural dos Pal\u00e1cios do Governo do Estado de S\u00e3o Paulo \u2013 Pal\u00e1cio Boa Vista","location.latitude":"-22.737057","location.longitude":"-45.618006"},{"index":430,"id":6556,"name":"Parque Estadual das Nascentes do Rio Taquari","location.latitude":"-20.4604431","location.longitude":"-54.6067537"},{"index":431,"id":6557,"name":"Centro Cultural Solar Ferr\u00e3o","location.latitude":"-12.9730401","location.longitude":"-38.502304"},{"index":432,"id":6558,"name":"Memorial do Ensino Agr\u00edcola Superior da Bahia - Universidade Federal do Rec\u00f4ncavo da Bahia","location.latitude":"-12.6735557","location.longitude":"-39.1016848"},{"index":433,"id":6559,"name":"Museu do Gr\u00eamio Herm\u00ednio Bittencourt","location.latitude":"-29.9739868","location.longitude":"-51.1950679"},{"index":434,"id":6560,"name":"Museu Cai\u00e7ara","location.latitude":"-23.4522625045858","location.longitude":"-45.0703382492065"},{"index":435,"id":6561,"name":"Museu da Imagem e do Som de Pernambuco","location.latitude":"-8.088521","location.longitude":"-34.883922"},{"index":436,"id":6562,"name":"Museu da Universidade Federal do Par\u00e1","location.latitude":"-1.448563","location.longitude":"-48.47791"},{"index":437,"id":6563,"name":"Museu Sacro Monsenhor Vicente Soares","location.latitude":"-19.9867139170213","location.longitude":"-44.4279170036316"},{"index":438,"id":6564,"name":"Casa da Mem\u00f3ria Gomes","location.latitude":"-22.7054319","location.longitude":"-46.9850813"},{"index":439,"id":6565,"name":"Museu Hist\u00f3rico Municipal de Dois Irm\u00e3os","location.latitude":"-29.577788","location.longitude":"-51.085999"},{"index":440,"id":6566,"name":"Museu de Minerais e Rochas - UFU - Universidade Federal de Uberl\u00e2ndia","location.latitude":"-18.914605","location.longitude":"-48.275387"},{"index":441,"id":6568,"name":"Museu \u00c9tnico Cultural ao Ar Livre","location.latitude":"-29.113927","location.longitude":"-49.633814"},{"index":442,"id":6569,"name":"Sala de Mem\u00f3ria de Guaratuba","location.latitude":"-25.8766237","location.longitude":"-48.5749495"},{"index":443,"id":6570,"name":"Museu Hist\u00f3rico e Pedag\u00f3gico Doutor Ces\u00e1rio Motta J\u00fanior","location.latitude":"-22.980789","location.longitude":"-47.497658"},{"index":444,"id":6571,"name":"Museu Hist\u00f3rico e Pedag\u00f3gico Doutor Costa J\u00fanior","location.latitude":"-22.6633503","location.longitude":"-45.0112167"},{"index":445,"id":6572,"name":"Casa da Mem\u00f3ria Viva da Ceil\u00e2ndia","location.latitude":"-15.8429787287771","location.longitude":"-48.1073069572449"},{"index":446,"id":6573,"name":"Museu Hist\u00f3rico de Santa Catarina","location.latitude":"-27.5969421","location.longitude":"-48.5499878"},{"index":447,"id":6574,"name":"Centro de Pesquisas Hist\u00f3ricas e Cultura Popular - Museu Carlos Cleber","location.latitude":"-11.7936083","location.longitude":"-38.8835584"},{"index":448,"id":6575,"name":"Museu Hist\u00f3rico Antonio Granemann de Souza","location.latitude":"-27.28342","location.longitude":"-50.5811"},{"index":449,"id":6576,"name":"Parque Estadual do Forno Grande","location.latitude":"-20.5166471","location.longitude":"-41.0840505"},{"index":450,"id":6577,"name":"Parque Estadual da Serra do Conduru","location.latitude":"-14.596724","location.longitude":"-39.285453"},{"index":451,"id":6578,"name":"Planet\u00e1rio de Londrina","location.latitude":"-23.30445","location.longitude":"-51.169589"},{"index":452,"id":6579,"name":"Museu de Malacologia Professor Maury Pinto de Oliveira - Universidade Federal de Juiz de Fora","location.latitude":"-21.7765879","location.longitude":"-43.370692"},{"index":453,"id":6580,"name":"Ponto de Mem\u00f3ria Museu Ind\u00edgena Kanind\u00e9","location.latitude":"-4.4126755","location.longitude":"-39.0474659"},{"index":454,"id":6581,"name":"Centro de Visita\u00e7\u00e3o do IBAMA","location.latitude":"-25.307547","location.longitude":"-48.3209"},{"index":455,"id":6582,"name":"Museu Hist\u00f3rico Municipal Irene Zuchetto Ramos","location.latitude":"-28.130158","location.longitude":"-55.027148"},{"index":456,"id":6583,"name":"Museu Municipal de Pinhal Grande","location.latitude":"-29.345488","location.longitude":"-53.321181"},{"index":457,"id":6584,"name":"Seringal Museu Capit\u00e3o Cir\u00edaco","location.latitude":"-9.975374","location.longitude":"-67.824903"},{"index":458,"id":6585,"name":"Museu e Arquivo Hist\u00f3rico Professor Hermann Wegermann","location.latitude":"-28.2934511","location.longitude":"-53.5063995"},{"index":459,"id":6586,"name":"Museu do Col\u00e9gio Nossa Senhora da Concei\u00e7\u00e3o","location.latitude":"-28.2585003","location.longitude":"-52.4056992"},{"index":460,"id":6587,"name":"Jardim Bot\u00e2nico da Universidade Federal Rural do Rio de Janeiro","location.latitude":"-22.7690305","location.longitude":"-43.6869836"},{"index":461,"id":6588,"name":"Casa de Cultura Jo\u00e3o Ribeiro","location.latitude":"-10.803829","location.longitude":"-37.169039"},{"index":462,"id":6589,"name":"Museu Municipal Padre Paulo Bortolini","location.latitude":"-28.747039","location.longitude":"-53.101624"},{"index":463,"id":6590,"name":"Museu Regional de Vit\u00f3ria da Conquista - Casa Henriqueta Prates","location.latitude":"-14.849343","location.longitude":"-40.837579"},{"index":464,"id":6591,"name":"Museu do Sert\u00e3o - Petrolina","location.latitude":"-9.38908","location.longitude":"-40.503102"},{"index":465,"id":6592,"name":"Museu do Xapury","location.latitude":"-10.653565","location.longitude":"-68.498863"},{"index":466,"id":6593,"name":"Parque Estadual da Serra do Mar","location.latitude":"-23.1366028","location.longitude":"-44.926207"},{"index":467,"id":6594,"name":"Reserva Florestal Adolpho Ducke","location.latitude":"-3.0740304","location.longitude":"-58.4662872"},{"index":468,"id":6595,"name":"Associa\u00e7\u00e3o Casa Museu Maria da Concei\u00e7\u00e3o Rebou\u00e7as","location.latitude":"-4.7158559","location.longitude":"-37.3547456"},{"index":469,"id":6596,"name":"Museu Casa das Bonecas","location.latitude":"-14.4239784","location.longitude":"-44.3681826"},{"index":470,"id":6597,"name":"Museu dos \u00d3culos Gioconda Giannini","location.latitude":"-23.559265","location.longitude":"-46.647148"},{"index":471,"id":6598,"name":"Museu Siar\u00e1 em Miniatura","location.latitude":"-3.7846819","location.longitude":"-38.516808"},{"index":472,"id":6601,"name":"Museu da Seresta e da Serenata","location.latitude":"-22.290015","location.longitude":"-43.925247"},{"index":473,"id":6602,"name":"Museu Memorial da Inclus\u00e3o - Os Caminhos da Pessoa com Defici\u00eancia","location.latitude":"-23.526488","location.longitude":"-46.666557"},{"index":474,"id":6603,"name":"Museu Comunit\u00e1rio de Ipumirim","location.latitude":"-27.077237","location.longitude":"-52.134277"},{"index":475,"id":6604,"name":"Museu do Homem do Norte","location.latitude":"-3.1336739","location.longitude":"-59.9864906"},{"index":476,"id":6605,"name":"Museu de Arqueologia e Etnologia MAE - Universidade Federal do Paran\u00e1","location.latitude":"-25.52168","location.longitude":"-48.507204"},{"index":477,"id":6606,"name":"Museu Hist\u00f3rico e Pedag\u00f3gico Volunt\u00e1rios da P\u00e1tria","location.latitude":"-21.793895","location.longitude":"-48.179486"},{"index":478,"id":6607,"name":"Museu da Fam\u00edlia Colonial","location.latitude":"-26.922113","location.longitude":"-49.05754"},{"index":479,"id":6609,"name":"Museu Oceanogr\u00e1fico Univali (MOVI)","location.latitude":"-26.7542521108825","location.longitude":"-48.6877249181271"},{"index":480,"id":6610,"name":"Jardim Bot\u00e2nico Municipal de Santos Chico Mendes","location.latitude":"-23.93552","location.longitude":"-46.36958"},{"index":481,"id":6611,"name":"Planet\u00e1rio Digital de An\u00e1polis - Espa\u00e7o de Astronomia e Ci\u00eancias Afins","location.latitude":"-16.3419051160309","location.longitude":"-48.9362490177155"},{"index":482,"id":6612,"name":"Museu da Casa do Penedo","location.latitude":"-10.288996","location.longitude":"-36.582821"},{"index":483,"id":6613,"name":"Museu S\u00edtio Minguinho","location.latitude":"-25.397236","location.longitude":"-51.474212"},{"index":484,"id":6614,"name":"Museu Biol\u00f3gico - Instituto Butantan","location.latitude":"-23.569243","location.longitude":"-46.714635"},{"index":485,"id":6615,"name":"Fazenda S\u00e3o Jos\u00e9 do Buquira \u2013 S\u00edtio do Pica Pau Amarelo","location.latitude":"-22.9545553","location.longitude":"-45.8386923"},{"index":486,"id":6616,"name":"Memorial Tribunal de Justi\u00e7a do Distrito Federal e Territ\u00f3rios - Espa\u00e7o Desembargadora Lila Pimenta Duarte","location.latitude":"-15.7942287","location.longitude":"-47.8821658"},{"index":487,"id":6617,"name":"Museu e Laborat\u00f3rio de Ensino de Ci\u00eancias\/Casa da Ci\u00eancia do Hemocentro de Ribeir\u00e3o Preto - Universidade de S\u00e3o Paulo","location.latitude":"-21.171264","location.longitude":"-47.847002"},{"index":488,"id":6618,"name":"Museu Vivo de Ci\u00eancia e Tecnologia de Campina Grande Lynaldo Cavalcanti","location.latitude":"-7.2227145","location.longitude":"-35.8897482"},{"index":489,"id":6619,"name":"Museu de Armas Hist\u00f3ricas Ferreira da Cunha","location.latitude":"-22.537541","location.longitude":"-43.221851"},{"index":490,"id":6620,"name":"Museu Hist\u00f3rico Professora Guiomar Pinheiro Franco","location.latitude":"-23.523537","location.longitude":"-46.192063"},{"index":491,"id":6621,"name":"Museu Hist\u00f3rico de Jaboticabal Alo\u00edsio de Almeida","location.latitude":"-21.262276","location.longitude":"-48.316842"},{"index":492,"id":6622,"name":"Museu da Escola Catarinense - UDESC - Universidade do Estado de Santa Catarina","location.latitude":"-27.5980247","location.longitude":"-48.5484036"},{"index":493,"id":6623,"name":"Museu Hist\u00f3rico Municipal de Iconha","location.latitude":"-20.7942626808751","location.longitude":"-40.810963511467"},{"index":494,"id":6624,"name":"Museu Wolfgang Weege - Parque Malwee","location.latitude":"-26.512061","location.longitude":"-49.126202"},{"index":495,"id":6625,"name":"Museu Carpol\u00f3gico\/Jardim Bot\u00e2nico Am\u00e1lia Hermano Teixeira","location.latitude":"-16.7071547","location.longitude":"-49.2441561"},{"index":496,"id":6626,"name":"Museu da For\u00e7a Expedicion\u00e1ria Brasileira (Rio de Janeiro)","location.latitude":"-22.9122285","location.longitude":"-43.1781611"},{"index":497,"id":6627,"name":"Acervo Hist\u00f3rico das Irm\u00e3s Franciscanas de S\u00e3o Jos\u00e9","location.latitude":"-27.572258","location.longitude":"-48.983875"},{"index":498,"id":6628,"name":"Museu Municipal do Imigrante (Louveira)","location.latitude":"-23.095677","location.longitude":"-46.893137"},{"index":499,"id":6631,"name":"Oca da Mem\u00f3ria","location.latitude":"-4.747101","location.longitude":"-40.920904"},{"index":500,"id":6632,"name":"S\u00edtio Arqueol\u00f3gico de Santarenzinho - Museu Vov\u00f4 Affonso","location.latitude":"-4.2670701","location.longitude":"-55.9931173"},{"index":501,"id":6633,"name":"Museu Doutor Carlos Barbosa Gon\u00e7alves","location.latitude":"-32.564135","location.longitude":"-53.379243"},{"index":502,"id":6635,"name":"Museu de Ci\u00eancias Morfol\u00f3gicas da Universidade Federal de Minas Gerais","location.latitude":"-19.869159","location.longitude":"-43.966363"},{"index":503,"id":6636,"name":"Museu Mem\u00f3ria e Identidade Ind\u00edgena","location.latitude":"-16.0768443","location.longitude":"-57.6823043"},{"index":504,"id":6637,"name":"Museu do Mil\u00eanio","location.latitude":"-25.211103","location.longitude":"-50.969902"},{"index":505,"id":6638,"name":"Museu de Arte Contempor\u00e2nea - Jata\u00ed","location.latitude":"-17.878833","location.longitude":"-51.7209"},{"index":506,"id":6639,"name":"Museu de Arqueologia de Ponta Grossa","location.latitude":"-25.1216067","location.longitude":"-50.1515066"},{"index":507,"id":6640,"name":"Museu Carnavalesco Col\u00f4 Santana","location.latitude":"-5.113034","location.longitude":"-36.633702"},{"index":508,"id":6641,"name":"Museu de Arte Sacra de Oeiras","location.latitude":"-7.01578","location.longitude":"-42.131032"},{"index":509,"id":6642,"name":"Casa da Mem\u00f3ria de Pedrin\u00f3polis","location.latitude":"-19.226546","location.longitude":"-47.462074"},{"index":510,"id":6643,"name":"Museu Hist\u00f3rico e Pedag\u00f3gico Zequinha de Abreu","location.latitude":"-21.7047615","location.longitude":"-47.4814071"},{"index":511,"id":6644,"name":"Museu Casa Guimar\u00e3es Rosa","location.latitude":"-19.122867","location.longitude":"-44.322836"},{"index":512,"id":6645,"name":"Museu Municipal Vale do Rio do Peixe","location.latitude":"-26.893779","location.longitude":"-51.07693"},{"index":513,"id":6646,"name":"Centro Cultural Narcisa Am\u00e1lia","location.latitude":"-21.6333155","location.longitude":"-41.0482376"},{"index":514,"id":6647,"name":"Instituto Hist\u00f3rico e Geogr\u00e1fico da Cidade de S\u00e3o Vicente","location.latitude":"-23.967396","location.longitude":"-46.382757"},{"index":515,"id":6648,"name":"Memorial da Revolu\u00e7\u00e3o de 1924","location.latitude":"-25.1978288","location.longitude":"-53.1548621"},{"index":516,"id":6649,"name":"Museu Nossa Senhora das Vit\u00f3rias","location.latitude":"-6.550553","location.longitude":"-36.587153"},{"index":517,"id":6650,"name":"Museu da Energia de Itu","location.latitude":"-23.2621157121253","location.longitude":"-47.3012012243271"},{"index":518,"id":6653,"name":"Museu de Geologia","location.latitude":"-30.071015","location.longitude":"-51.227662"},{"index":519,"id":6654,"name":"Museu da Cacha\u00e7a - Tup\u00e3","location.latitude":"-21.9372331","location.longitude":"-50.5192167"},{"index":520,"id":6655,"name":"Museu Militar Conde de Linhares","location.latitude":"-22.9049866","location.longitude":"-43.2192063"},{"index":521,"id":6656,"name":"Museu Municipal de Vacaria","location.latitude":"-28.488024","location.longitude":"-50.935858"},{"index":522,"id":6657,"name":"Memorial da Medicina Brasileira \u2013 Faculdade de Medicina da Bahia\/Universidade Federal da Bahia","location.latitude":"-12.973226","location.longitude":"-38.510012"},{"index":523,"id":6658,"name":"Museu da Loucura - Fortaleza","location.latitude":"-3.767984","location.longitude":"-38.560159"},{"index":524,"id":6659,"name":"Museu dos Meninos - Virtual - Complexo do Alem\u00e3o","location.latitude":"-22.91607","location.longitude":"-43.177481"},{"index":525,"id":6660,"name":"Museu\/Arquivo Hist\u00f3rico da Santa Casa","location.latitude":"-1.441586","location.longitude":"-48.482594"},{"index":526,"id":6661,"name":"Museu Entomol\u00f3gico Fritz Plaumann","location.latitude":"-27.156917","location.longitude":"-52.299559"},{"index":527,"id":6663,"name":"Museu - Centro de Mem\u00f3rias do Instituto Federal do Sul de Minas - Campus Muzambinho","location.latitude":"-21.360285","location.longitude":"-46.529307"},{"index":528,"id":6664,"name":"Centro de Mem\u00f3ria da Medicina - Universidade Federal de Minas Gerais","location.latitude":"-19.924463","location.longitude":"-43.9292557"},{"index":529,"id":6665,"name":"Centro de Apoio a Cultura de Acopiara","location.latitude":"-6.0923641","location.longitude":"-39.4556856"},{"index":530,"id":6666,"name":"Museu Parque das Ru\u00ednas","location.latitude":"-22.917257","location.longitude":"-43.184175"},{"index":531,"id":6667,"name":"Jardim Bot\u00e2nico Municipal de Paul\u00ednia Adelmo Piva Junior","location.latitude":"-22.762609","location.longitude":"-47.146571"},{"index":532,"id":6668,"name":"Museu Hist\u00f3rico Washington de Oliveira","location.latitude":"-23.432892","location.longitude":"-45.072608"},{"index":533,"id":6670,"name":"Forte dos Reis Magos","location.latitude":"-5.756511","location.longitude":"-35.194983"},{"index":534,"id":6672,"name":"Museu Arqueol\u00f3gico de Central","location.latitude":"-11.138005","location.longitude":"-42.112012"},{"index":535,"id":6673,"name":"Museu Hist\u00f3rico e Pedag\u00f3gico Prudente de Moraes","location.latitude":"-22.7224857315952","location.longitude":"-47.6476728916168"},{"index":536,"id":6674,"name":"Museu de Arte do Esp\u00edrito Santo Dion\u00edsio Del Santo","location.latitude":"-20.319938","location.longitude":"-40.334011"},{"index":537,"id":6675,"name":"Parque Estadual Mata dos Godoy","location.latitude":"-23.30445","location.longitude":"-51.169589"},{"index":538,"id":6676,"name":"Museu de Ci\u00eancias do Cerrado Nordestino - Universidade Federal do Oeste da Bahia","location.latitude":"-12.1428257","location.longitude":"-45.0116345"},{"index":539,"id":6677,"name":"Parque Estadual de Ilhabela","location.latitude":"-23.778904","location.longitude":"-45.358746"},{"index":540,"id":6678,"name":"\u00d2sun \u00ccya Oke Ile Afro-Brasileiro Ode Lorecy","location.latitude":"-23.6690085","location.longitude":"-46.8537217"},{"index":541,"id":6679,"name":"Memorial Tertuliano Brand\u00e3o Filho","location.latitude":"-4.424294","location.longitude":"-41.458048"},{"index":542,"id":6680,"name":"Museu Municipal General Hon\u00f3rio Lemes","location.latitude":"-30.256993","location.longitude":"-54.9184"},{"index":543,"id":6681,"name":"Museu Hist\u00f3rico de Jales","location.latitude":"-20.272141","location.longitude":"-50.54907"},{"index":544,"id":6682,"name":"Museu Bento Ernesto J\u00fanior","location.latitude":"-20.4728956","location.longitude":"-45.1240603"},{"index":545,"id":6683,"name":"Museu Hist\u00f3rico de Jaciara","location.latitude":"-15.9559696","location.longitude":"-54.9751847"},{"index":546,"id":6684,"name":"Museu Hist\u00f3rico de Sobradinho","location.latitude":"-29.4158872","location.longitude":"-53.0282651"},{"index":547,"id":6685,"name":"Parque Arqueol\u00f3gico e Ambiental de S\u00e3o Jo\u00e3o Marcos","location.latitude":"-22.7298046","location.longitude":"-44.1254337"},{"index":548,"id":6686,"name":"Herb\u00e1rio ASE - Universidade Federal de Sergipe","location.latitude":"-10.923420718845","location.longitude":"-37.1021819114685"},{"index":549,"id":6687,"name":"Museu Hist\u00f3rico Jorge Nogueira de Carvalho","location.latitude":"-21.3592534","location.longitude":"-48.2285662"},{"index":550,"id":6688,"name":"Memorial Antonio Mariz","location.latitude":"-6.759704","location.longitude":"-38.231817"},{"index":551,"id":6689,"name":"Museu Municipal Cl\u00e1udio Oscar Becker","location.latitude":"-29.583066","location.longitude":"-51.155917"},{"index":552,"id":6690,"name":"Museu Municipal Padre Geraldo Dantas","location.latitude":"-5.4545752","location.longitude":"-39.7177495"},{"index":553,"id":6691,"name":"Museu Arquidiocesano de Arte Sacra Dom Ranulpho","location.latitude":"-9.71014","location.longitude":"-35.897062"},{"index":554,"id":6693,"name":"Museu de Ci\u00eancias Naturais da Universidade Federal do Rio Grande do Sul","location.latitude":"-29.9226583","location.longitude":"-50.0983016"},{"index":555,"id":6694,"name":"Ecomuseu de Sepetiba","location.latitude":"-22.9833514","location.longitude":"-43.701406"},{"index":556,"id":6695,"name":"Museu Municipal Francisco Veloso - Centro de Cultura e Tradi\u00e7\u00e3o de Cunha","location.latitude":"-23.074819","location.longitude":"-44.959553"},{"index":557,"id":6696,"name":"Museu Estadual de Rond\u00f4nia","location.latitude":"-8.765807","location.longitude":"-63.907832"},{"index":558,"id":6697,"name":"Casa Porto das Artes Pl\u00e1sticas","location.latitude":"-20.3181177453061","location.longitude":"-40.3300595283508"},{"index":559,"id":6698,"name":"Museu Arqueol\u00f3gico","location.latitude":"-27.012719872938","location.longitude":"-48.6127853393555"},{"index":560,"id":6699,"name":"Museu de Arte da Universidade Federal do Cear\u00e1 - MAUC","location.latitude":"-3.7410466","location.longitude":"-38.5397165"},{"index":561,"id":6700,"name":"Museu Sacro da Igreja de S\u00e3o Sebasti\u00e3o","location.latitude":"-19.5881513","location.longitude":"-46.9406336"},{"index":562,"id":6701,"name":"Museu do Som Independente","location.latitude":"-25.432052","location.longitude":"-49.274333"},{"index":563,"id":6702,"name":"Museu do P\u00e2mpano","location.latitude":"-5.783416","location.longitude":"-35.191506"},{"index":564,"id":6703,"name":"Museu do Carv\u00e3o","location.latitude":"-28.7005777","location.longitude":"-49.4067826"},{"index":565,"id":6704,"name":"Casa da Cultura Jos\u00e9 de Dome - Charitas","location.latitude":"-22.8785891","location.longitude":"-42.0168001"},{"index":566,"id":6705,"name":"Museu Irm\u00e3o Luiz Godofredo Gartner","location.latitude":"-26.439222","location.longitude":"-49.26011"},{"index":567,"id":6706,"name":"Museu C\u00edvico Religioso Padre C\u00edcero","location.latitude":"-7.198966","location.longitude":"-39.317984"},{"index":568,"id":6707,"name":"Museu do Theatro Municipal de S\u00e3o Paulo","location.latitude":"-23.5446912","location.longitude":"-46.638621"},{"index":569,"id":6708,"name":"Instituto Visconde de Mau\u00e1 - N\u00facleo de Acervo Artesanal","location.latitude":"-12.929424","location.longitude":"-38.507413"},{"index":570,"id":6709,"name":"Museu Municipal Crist\u00f3foro Colombo","location.latitude":"-25.28979","location.longitude":"-49.218736"},{"index":571,"id":6710,"name":"Museu Ferrovi\u00e1rio Agenor Francisco Felizardo","location.latitude":"-22.661871","location.longitude":"-50.420567"},{"index":572,"id":6711,"name":"Museu de Curiosidades Arlindo Dantas Monteiro","location.latitude":"-7.2651339","location.longitude":"-37.3426697"},{"index":573,"id":6712,"name":"Museu da \u00c1gua de Piracicaba","location.latitude":"-22.7192748","location.longitude":"-47.6544309"},{"index":574,"id":6713,"name":"Museu Di Ferramenta D\u2019Affari dei Nonni","location.latitude":"-26.485577","location.longitude":"-49.071735"},{"index":575,"id":6714,"name":"Museu de Artes Visuais","location.latitude":"-2.540438","location.longitude":"-44.254628"},{"index":576,"id":6715,"name":"Memorial Expedito Resende","location.latitude":"-4.271953","location.longitude":"-41.771947"},{"index":577,"id":6716,"name":"Museu de Minerais e Rochas da Universidade Federal do Esp\u00edrito Santo","location.latitude":"-20.2775638","location.longitude":"-40.3036012"},{"index":578,"id":6719,"name":"Museu Liter\u00e1rio Municipal","location.latitude":"-29.684582","location.longitude":"-51.460435"},{"index":579,"id":6720,"name":"Museu Goiano Zoroastro Artiaga","location.latitude":"-16.663272","location.longitude":"-49.261328"},{"index":580,"id":6721,"name":"Museu Municipal Alferes Belis\u00e1rio","location.latitude":"-21.5473162","location.longitude":"-45.7384786"},{"index":581,"id":6722,"name":"Museu Hist\u00f3rico Municipal Wogeck Kubiack - MHMWK","location.latitude":"-27.4112809648643","location.longitude":"-49.7625088691711"},{"index":582,"id":6723,"name":"Museu Irm\u00e3o Paschoal Pasa","location.latitude":"-28.246357","location.longitude":"-52.389"},{"index":583,"id":6725,"name":"Museu da Criatividade Popular de Paul\u00ednia","location.latitude":"-22.7701509","location.longitude":"-47.146639"},{"index":584,"id":6726,"name":"Museu Municipal Salustiano Costa J\u00fanior","location.latitude":"-26.2358233","location.longitude":"-51.0815427"},{"index":585,"id":6727,"name":"Museu do Caju","location.latitude":"-3.7642712","location.longitude":"-38.6167178"},{"index":586,"id":6728,"name":"Casa da Cultura Godofredo Rangel","location.latitude":"-21.6974346","location.longitude":"-45.2560997"},{"index":587,"id":6729,"name":"Memorial do Instituto Federal de Educa\u00e7\u00e3o, Ci\u00eancia e Tecnologia do Rio Grande do Norte","location.latitude":"-5.782575","location.longitude":"-35.205361"},{"index":588,"id":6730,"name":"Museu Casa do Imigrante Holand\u00eas","location.latitude":"-24.78957","location.longitude":"-50.011253"},{"index":589,"id":6731,"name":"Espa\u00e7o Cultural Reche","location.latitude":"-27.8300818","location.longitude":"-50.3310918"},{"index":590,"id":6732,"name":"Instituto Popular Memorial de Canudos","location.latitude":"-9.900559","location.longitude":"-39.147419"},{"index":591,"id":6733,"name":"Parque Estadual Graciosa","location.latitude":"-25.4358338005556","location.longitude":"-48.834228515625"},{"index":592,"id":6734,"name":"Memorial Rezende Barbosa","location.latitude":"-22.663299","location.longitude":"-50.423058"},{"index":593,"id":6735,"name":"Museu do Forte do Pres\u00e9pio","location.latitude":"-1.4543389","location.longitude":"-48.5052203"},{"index":594,"id":6736,"name":"Museu do Ch\u00e1","location.latitude":"-20.4470558","location.longitude":"-43.4552129"},{"index":595,"id":6737,"name":"Museu Municipal Em\u00edlio Osmundo Assmann","location.latitude":"-29.7118682","location.longitude":"-52.5050645"},{"index":596,"id":6738,"name":"Museu N\u00edsia Floresta","location.latitude":"-6.093688","location.longitude":"-35.1994459"},{"index":597,"id":6739,"name":"Parque Zool\u00f3gico Municipal Quinzinho de Barros","location.latitude":"-23.506936","location.longitude":"-47.4381039"},{"index":598,"id":6740,"name":"Museu Municipal de Viam\u00e3o","location.latitude":"-30.081984","location.longitude":"-51.025548"},{"index":599,"id":6741,"name":"Museu de Hist\u00f3ria Natural e Antropologia","location.latitude":"-15.601408","location.longitude":"-56.097898"},{"index":600,"id":6742,"name":"Centro de Refer\u00eancia em Cartografia Hist\u00f3rica - Palacinho - Universidade Federal de Minas Gerais","location.latitude":"-19.895199","location.longitude":"-43.912269"},{"index":601,"id":6743,"name":"Museu Municipal Professor Alfredo Drake","location.latitude":"-28.747039","location.longitude":"-53.101624"},{"index":602,"id":6744,"name":"Instituto Hist\u00f3rico Vereador Thom\u00e9 Siqueira Barreto\/C\u00e2mara Municipal de Duque de Caxias","location.latitude":"-22.790439","location.longitude":"-43.308059"},{"index":603,"id":6746,"name":"Museu Casa Get\u00falio Vargas","location.latitude":"-28.659087","location.longitude":"-56.001648"},{"index":604,"id":6747,"name":"Museu Rodovi\u00e1rio de Paraibuna","location.latitude":"-22.040917","location.longitude":"-43.214437"},{"index":605,"id":6748,"name":"Museu Das Kolonistenhaus","location.latitude":"-24.78957","location.longitude":"-50.011253"},{"index":606,"id":6749,"name":"Museu de Minerais e Rochas Universidade Federal de Pernambuco","location.latitude":"-8.0518777","location.longitude":"-34.9533177"},{"index":607,"id":6750,"name":"Museu de Arte Contempor\u00e2nea - Senhor do Bonfim","location.latitude":"-10.448858","location.longitude":"-40.198759"},{"index":608,"id":6751,"name":"Museu Hist\u00f3rico e Cultural de Arraias - MHCA","location.latitude":"-12.9316641080435","location.longitude":"-46.9379925727844"},{"index":609,"id":6752,"name":"Museu Jos\u00e9 Ant\u00f4nio Pereira","location.latitude":"-20.5268442","location.longitude":"-54.6040548"},{"index":610,"id":6753,"name":"Museu Municipal de Mangaratiba","location.latitude":"-22.9621246","location.longitude":"-44.0409644"},{"index":611,"id":6754,"name":"Museu de Entomologia da FEIS\/Universidade Estadual Paulista","location.latitude":"-20.428716","location.longitude":"-51.345857"},{"index":612,"id":6755,"name":"Museu Municipal Terezinha Generoso","location.latitude":"-22.60737","location.longitude":"-45.187357"},{"index":613,"id":6757,"name":"Museu Capixaba do Negro Ver\u00f4nica da Pas - Mucane","location.latitude":"-20.3208392973683","location.longitude":"-40.3414213657379"},{"index":614,"id":6758,"name":"Museu Sele\u00e7\u00e3o Brasileira","location.latitude":"-22.9955034","location.longitude":"-43.3642281"},{"index":615,"id":6759,"name":"Casa da Cultura de Arinos","location.latitude":"-15.9058614","location.longitude":"-46.0955225"},{"index":616,"id":6760,"name":"Museu da \u00c1rvore","location.latitude":"-2.531731","location.longitude":"-44.247582"},{"index":617,"id":6761,"name":"Memorial Coruripense","location.latitude":"-10.128777","location.longitude":"-36.1749"},{"index":618,"id":6762,"name":"Museu Municipal Hist\u00f3rico e Cultural Tom\u00e9 Portes del- Rei","location.latitude":"-21.138419","location.longitude":"-44.260941"},{"index":619,"id":6763,"name":"Espa\u00e7o Universidade Federal Fluminense de Ci\u00eancias","location.latitude":"-22.903134","location.longitude":"-43.116703"},{"index":620,"id":6764,"name":"Parque Hist\u00f3rico General Bento Gon\u00e7alves","location.latitude":"-31.005131","location.longitude":"-52.044149"},{"index":621,"id":6765,"name":"Museu Municipal Divino Alziro Beckel","location.latitude":"-30.850018","location.longitude":"-51.819298"},{"index":622,"id":6766,"name":"Museu Eug\u00eanio Teixeira Leal","location.latitude":"-12.972768","location.longitude":"-38.508913"},{"index":623,"id":6767,"name":"Museu de Arte Contempor\u00e2nea - MAC Niter\u00f3i","location.latitude":"-22.907851","location.longitude":"-43.125899"},{"index":624,"id":6768,"name":"Museu da Computa\u00e7\u00e3o e Inform\u00e1tica","location.latitude":"-23.4684821","location.longitude":"-47.4780126"},{"index":625,"id":6769,"name":"Museu Jos\u00e9 Elviro","location.latitude":"-5.117513","location.longitude":"-36.63237"},{"index":626,"id":6770,"name":"Museu de Arte Sacra da Diocese de S\u00e3o Jo\u00e3o da Boa Vista","location.latitude":"-21.971397","location.longitude":"-46.798494"},{"index":627,"id":6771,"name":"Museu do Canga\u00e7o de Serra Talhada","location.latitude":"-7.982188","location.longitude":"-38.289385"},{"index":628,"id":6772,"name":"Museu Municipal Padre Fernando","location.latitude":"-26.767009","location.longitude":"-53.174218"},{"index":629,"id":6773,"name":"Centro Juvenil de Artes Pl\u00e1sticas","location.latitude":"-25.4272152","location.longitude":"-49.2718191"},{"index":630,"id":6774,"name":"Espa\u00e7o Cultural Luciano Bastos","location.latitude":"-21.145344","location.longitude":"-41.6826186"},{"index":631,"id":6775,"name":"Parque Dois Irm\u00e3os","location.latitude":"-8.010713","location.longitude":"-34.94723"},{"index":632,"id":6776,"name":"Museu Vicente Celestino e Gilda de Abreu","location.latitude":"-22.2913109","location.longitude":"-43.9273592"},{"index":633,"id":6777,"name":"Centro de Mem\u00f3ria do Esporte Jundiaiense","location.latitude":"-23.191472","location.longitude":"-46.894445"},{"index":634,"id":6778,"name":"Parque Estadual Marinho de Areia Vermelha","location.latitude":"-7.0065415","location.longitude":"-34.8286108"},{"index":635,"id":6779,"name":"Laborat\u00f3rio de Estudos e Pesquisa da Aprendizagem Cient\u00edfica do Departamento de Matem\u00e1tica da Universidade Federal da Para\u00edba","location.latitude":"-7.136472","location.longitude":"-34.845607"},{"index":636,"id":6780,"name":"Museu Municipal Francisco Leonardo Cer\u00e1volo","location.latitude":"-21.369635","location.longitude":"-46.521745"},{"index":637,"id":6781,"name":"Centro de Arte Popular","location.latitude":"-19.9304738","location.longitude":"-43.9398843"},{"index":638,"id":6782,"name":"Museu Franciscano de Arte Sacra","location.latitude":"-8.065394","location.longitude":"-34.876979"},{"index":639,"id":6783,"name":"Museu Municipal Gustavo Teixeira","location.latitude":"-22.547607","location.longitude":"-47.914974"},{"index":640,"id":6784,"name":"Museu de Arte Sacra Iria Josepha da Silva","location.latitude":"-21.469826","location.longitude":"-47.00195"},{"index":641,"id":6785,"name":"Museu de Artes Pl\u00e1sticas Quirino da Silva","location.latitude":"-21.469803","location.longitude":"-47.001964"},{"index":642,"id":6786,"name":"Casa de Jos\u00e9 de Alencar - Universidade Federal do Cear\u00e1","location.latitude":"-3.794276","location.longitude":"-38.480241"},{"index":643,"id":6787,"name":"S\u00edtio Hist\u00f3rico de Carapina","location.latitude":"-20.2170192375139","location.longitude":"-40.2872514724731"},{"index":644,"id":6788,"name":"Centro Municipal de Arte H\u00e9lio Oiticica","location.latitude":"-22.9057428969326","location.longitude":"-43.1833398342133"},{"index":645,"id":6789,"name":"Casa da Cultura de Domingos Martins","location.latitude":"-20.363593","location.longitude":"-40.657948"},{"index":646,"id":6790,"name":"Museu Guiomar Britto","location.latitude":"-9.503995","location.longitude":"-37.830421"},{"index":647,"id":6791,"name":"Museu Hist\u00f3rico Municipal Padre Francisco de Paula Lima","location.latitude":"-23.0057992022134","location.longitude":"-46.8402904272079"},{"index":648,"id":6792,"name":"Casa Jo\u00e3o Turin","location.latitude":"-25.4273542","location.longitude":"-49.271776"},{"index":649,"id":6793,"name":"Museu Arqueol\u00f3gico do Carste do Alto S\u00e3o Francisco","location.latitude":"-20.370944","location.longitude":"-45.66312"},{"index":650,"id":6794,"name":"Museu Geol\u00f3gico do Estado de Rond\u00f4nia","location.latitude":"-8.765807","location.longitude":"-63.907832"},{"index":651,"id":6795,"name":"Casa Rom\u00e1rio Martins","location.latitude":"-25.427547","location.longitude":"-49.27195"},{"index":652,"id":6796,"name":"Museu de Ci\u00eancias Naturais da Universidade Luterana do Brasil","location.latitude":"-29.913256","location.longitude":"-51.186199"},{"index":653,"id":6797,"name":"Museu do Rio Cuiab\u00e1 Hid Alfred Scaff","location.latitude":"-15.6033039","location.longitude":"-56.1372676"},{"index":654,"id":6798,"name":"Jardim Bot\u00e2nico  de Jundia\u00ed Valmor de Souza","location.latitude":"-23.202753","location.longitude":"-46.85135"},{"index":655,"id":6799,"name":"Museu de Hist\u00f3ria Natural de Campinas","location.latitude":"-22.905796","location.longitude":"-47.050232"},{"index":656,"id":6800,"name":"Memorial da Assembleia Legislativa do Cear\u00e1 Deputado Pontes Neto","location.latitude":"-3.7503765","location.longitude":"-38.5027979"},{"index":657,"id":6801,"name":"Museu Ecol\u00f3gico Franz Krajcberg","location.latitude":"-17.9008502","location.longitude":"-39.371702"},{"index":658,"id":6802,"name":"Museu da Biodiversidade  Universidade Federal da Grande Dourados","location.latitude":"-22.196219","location.longitude":"-54.930187"},{"index":659,"id":6803,"name":"Fortaleza de S\u00e3o Jos\u00e9 da Ponta Grossa - Universidade Federal de Santa Catarina - UFSC","location.latitude":"-27.4324414","location.longitude":"-48.5155111"},{"index":660,"id":6804,"name":"Museu Hist\u00f3rico Garibaldino Louren\u00e7o de Lima","location.latitude":"-28.208167","location.longitude":"-51.526575"},{"index":661,"id":6805,"name":"Casa da Cultura Quilombo","location.latitude":"-26.72757","location.longitude":"-52.720385"},{"index":662,"id":6806,"name":"Museu Parque de Ci\u00eancias - Museu Interativo de Ci\u00eancias","location.latitude":"-1.455752","location.longitude":"-48.490186"},{"index":663,"id":6807,"name":"Museu e Acervo Municipal Fot\u00f3grafo Haroldo \u00c2ngelo Pazinatto","location.latitude":"-22.9676645","location.longitude":"-46.9937094"},{"index":664,"id":6808,"name":"Sociedade Garibaldi - Palacete Giuseppe Garibaldi","location.latitude":"-25.4277202","location.longitude":"-49.3040513"},{"index":665,"id":6809,"name":"Museu Municipal Elisabeth Aytai","location.latitude":"-22.948567","location.longitude":"-47.3112882"},{"index":666,"id":6810,"name":"Museu Din\u00e2mico da Mata Atl\u00e2ntica","location.latitude":"-24.501077","location.longitude":"-47.851416"},{"index":667,"id":6811,"name":"Museu Art\u00edstico e Hist\u00f3rico de Itabaiana Antonio Nogueira","location.latitude":"-10.6888900027532","location.longitude":"-37.4246102571487"},{"index":668,"id":6812,"name":"Nosso Museu","location.latitude":"-20.870122","location.longitude":"-48.302306"},{"index":669,"id":6814,"name":"Museu Municipal Adolfo Evaldo Lindenmeyer","location.latitude":"-29.636227","location.longitude":"-51.00861"},{"index":670,"id":6815,"name":"Acervo Art\u00edstico-Cultural dos Pal\u00e1cios do Governo do Estado de S\u00e3o Paulo - Pal\u00e1cio dos Bandeirantes","location.latitude":"-23.603805","location.longitude":"-46.712258"},{"index":671,"id":6816,"name":"Memorial Lajoumim - Terreiro Pil\u00e3o de Prata","location.latitude":"-12.972226","location.longitude":"-38.501426"},{"index":672,"id":6817,"name":"Museu Diocesano Dom Fernando Legal","location.latitude":"-23.491386","location.longitude":"-46.446221"},{"index":673,"id":6818,"name":"Museu Municipal Dr. S\u00e9rgio Severo Malta","location.latitude":"-30.119934","location.longitude":"-51.969422"},{"index":674,"id":6819,"name":"Museu Hist\u00f3rico e Pedag\u00f3gico Doutor Washington Luis","location.latitude":"-20.888282","location.longitude":"-47.602701"},{"index":675,"id":6821,"name":"Museu Hist\u00f3rico Pedag\u00f3gico Lucas Monteiro de Barros","location.latitude":"-20.723645","location.longitude":"-47.882699"},{"index":676,"id":6822,"name":"Museu Casa de Alu\u00edzio Afonso Campos","location.latitude":"-7.218987","location.longitude":"-35.882579"},{"index":677,"id":6823,"name":"Museu Andr\u00e9 Gustavo Paulo de Frontin","location.latitude":"-22.552231","location.longitude":"-43.677952"},{"index":678,"id":6824,"name":"Museu de Cruzeiro do Sul","location.latitude":"-7.628651","location.longitude":"-72.674072"},{"index":679,"id":6825,"name":"Museu Cole\u00e7\u00e3o Karandash de Arte Popular e Contempor\u00e2nea","location.latitude":"-9.659558","location.longitude":"-35.737912"},{"index":680,"id":6826,"name":"Museu Capit\u00e3o Antas","location.latitude":"-5.516491","location.longitude":"-36.386985"},{"index":681,"id":6827,"name":"Museu Senzala Negro Liberto","location.latitude":"-4.224227","location.longitude":"-38.7281"},{"index":682,"id":6828,"name":"Museu Bar\u00e3o de Mau\u00e1","location.latitude":"-23.666189","location.longitude":"-46.452552"},{"index":683,"id":6829,"name":"Museu de Arte Sacra de Uberaba","location.latitude":"-19.738057","location.longitude":"-47.917266"},{"index":684,"id":6830,"name":"Memorial Jos\u00e9 Silveira","location.latitude":"-12.569837","location.longitude":"-38.718385"},{"index":685,"id":6831,"name":"Museu Crisantho Jobim","location.latitude":"-3.134014","location.longitude":"-60.028568"},{"index":686,"id":6832,"name":"Museu Tubar\u00f5es","location.latitude":"-3.834735","location.longitude":"-32.398962"},{"index":687,"id":6834,"name":"Acervo Municipal","location.latitude":"-25.437765","location.longitude":"-54.405931"},{"index":688,"id":6835,"name":"Museu Municipal Doutor Jos\u00e9 Olavo Machado","location.latitude":"-28.31334","location.longitude":"-54.261913"},{"index":689,"id":6837,"name":"Museu Hist\u00f3rico e Pedag\u00f3gico Visconde de Mau\u00e1","location.latitude":"-23.523276","location.longitude":"-46.190023"},